name,id,classification,mass,year,latitude,longitude
Abee,6,EH4,107000.0,1952.0,54.21667,-113.0
Agen,392,H5,30000.0,1814.0,44.21667,0.61667
Aïr,424,L6,24000.0,1925.0,19.08333,8.38333
Akyumak,433,"Iron, IVA",50000.0,1981.0,39.91667,42.81667
Alfianello,466,L6,228000.0,1883.0,45.26667,10.15
Allegan,2276,H5,32000.0,1899.0,42.53333,-85.88333
Allende,2278,CV3,2000000.0,1969.0,26.96667,-105.31667
Andura,2298,H6,17900.0,1939.0,20.88333,76.86667
Appley Bridge,2318,LL6,15000.0,1914.0,53.58333,-2.71667
Aumale,4899,L6,50000.0,1865.0,36.16667,3.66667
Ausson,4903,L5,50000.0,1858.0,43.08333,0.58333
Bachmut,4917,L6,18000.0,1814.0,48.6,38.0
Bahjoi,4922,"Iron, IAB-sLL",10322.0,1934.0,28.48333,78.5
Ban Rong Du,4934,"Iron, ungrouped",16700.0,1993.0,16.66667,101.18333
Bandong,4935,LL6,11500.0,1871.0,-6.91667,107.6
Bansur,4936,L6,15000.0,1892.0,27.7,76.33333
Barwell,4954,L5,44000.0,1965.0,52.56528,-1.33972
Bassikounou,44876,H5,29560.0,2006.0,15.78333,-5.9
Baszkówka,4957,L5,15500.0,1994.0,52.03333,20.93583
Bath,4974,H4,21000.0,1892.0,45.41667,-98.31667
Bath Furnace,4975,L6,86000.0,1902.0,38.25,-83.75
Beardsley,4984,H5,16000.0,1929.0,39.8,-101.2
Beaver Creek,4986,H5,14000.0,1893.0,51.16667,-117.33333
Benguerir,30443,LL6,25000.0,2004.0,32.25,-8.15
Beni M'hira,5018,L6,19000.0,2001.0,32.86667,10.8
Bensour,5024,LL6,45000.0,2002.0,30.0,-7.0
Béréba,5028,Eucrite-mmict,18000.0,1924.0,11.65,-3.65
Bilanga,5045,Diogenite,25000.0,1999.0,12.45,-0.08333
Bjurböle,5064,L/LL4,330000.0,1899.0,60.4,25.8
Boguslavka,5098,"Iron, IIAB",256000.0,1916.0,44.55,131.63333
Braunau,5133,"Iron, IIAB",39000.0,1847.0,50.6,16.3
Bruderheim,5156,L6,303000.0,1960.0,53.9,-112.88333
Bur-Gheluai,5169,H5,120000.0,1919.0,5.0,48.0
Bursa,5177,L6,25000.0,1946.0,40.2,29.23333
Butsura,5183,H6,29000.0,1861.0,27.08333,84.08333
Buzzard Coulee,48654,H4,41000.0,2008.0,52.996,-109.84817
Cabezo de Mayo,5185,L/LL6,25000.0,1870.0,37.98333,-1.16667
Cabin Creek,5186,"Iron, IIIAB",48500.0,1886.0,35.5,-93.5
Campos Sales,5249,L5,23680.0,1991.0,-7.03333,-40.16667
Cangas de Onis,5252,H5,34000.0,1866.0,43.38333,-5.15
Castrovillari,5295,Stone-uncl,15000.0,1583.0,39.8,16.2
Chajari,5316,L5,18300.0,1933.0,-30.78333,-58.05
Chantonnay,5325,L6,31500.0,1812.0,46.68333,1.05
Charsonville,5329,H6,27000.0,1810.0,47.93333,1.56667
Charwallas,5330,H6,12000.0,1834.0,29.48333,75.5
Château-Renard,5332,L6,30000.0,1841.0,47.93333,2.91667
Chelyabinsk,57165,LL5,100000.0,2013.0,54.81667,61.11667
Chergach ,47347,H5,100000.0,2007.0,23.69639,-5.01472
Colby (Wisconsin),5395,L6,104000.0,1917.0,44.9,-90.28333
Conquista,5418,H4,20350.0,1965.0,-19.85,-47.55
Cumberland Falls,5496,Aubrite,17000.0,1919.0,36.83333,-84.35
Dahmani,5504,LL6,18000.0,1981.0,35.61667,8.83333
Demina,6649,L6,16400.0,1911.0,51.46667,84.76667
Dergaon,6664,H5,12500.0,2001.0,26.68333,93.86667
Desuri,6693,H6,25400.0,1962.0,25.73333,73.61667
Devgaon,6694,H3.8,12000.0,2001.0,19.0,81.0
Dhajala,6698,H3.8,45000.0,1976.0,22.37778,71.42722
Dhurmsala,7640,LL6,32000.0,1860.0,32.23333,76.46667
Djati-Pengilon,7652,H6,166000.0,1884.0,-7.5,111.5
Djoumine,7657,H5-6,10000.0,1999.0,36.95,9.55
Dong Ujimqin Qi,7706,Mesosiderite,128800.0,1995.0,45.5,119.03333
Dresden (Ontario),7731,H6,47700.0,1939.0,42.52,-82.26
Durala,7750,L6,13200.0,1815.0,30.3,76.63333
Eagle,7760,EL6,10000.0,1947.0,40.78167,-96.47167
El Idrissia,7807,L6,10000.0,1989.0,34.41667,3.25
El Paso de Aguila,45977,H5,17226.0,1977.0,25.37,-97.37
Elbogen,7823,"Iron, IID",107000.0,1399.0,50.18333,12.73333
Elenovka,7824,L5,54640.0,1951.0,47.83333,37.66667
Ensisheim,10039,LL6,127000.0,1491.0,47.86667,7.35
Ergheo,10044,L5,20000.0,1889.0,1.16667,44.16667
Estherville,10059,Mesosiderite-A3/4,320000.0,1879.0,43.41667,-94.83333
Farmington,10074,L5,89400.0,1890.0,39.75,-97.03333
Farmville,10075,H4,56000.0,1934.0,35.55,-77.53333
Fermo,10091,H3-5,10200.0,1996.0,43.18111,13.75333
Fisher,10107,L6,17600.0,1894.0,47.81667,-96.85
Forest City,10119,H5,152000.0,1890.0,43.25,-93.66667
Forest Vale,10120,H4,26000.0,1942.0,-33.35,146.85833
Forsyth,10164,L6,16300.0,1829.0,33.01667,-83.96667
Fuhe,52412,L5,23000.0,1945.0,31.47556,113.56694
Fukutomi,10836,L5,11620.0,1882.0,33.18333,130.2
Gifu,10914,L6,14290.0,1909.0,35.53333,136.88333
Girgenti,10917,L6,18000.0,1853.0,37.31667,13.56667
Glasatovo,10926,H4,152000.0,1918.0,57.35,37.61667
Gross-Divina,11207,H5,10500.0,1837.0,49.26667,18.71667
Gualeguaychú,11432,H6,22000.0,1932.0,-33.0,-58.61667
Guareña,11439,H6,39000.0,1892.0,38.73333,-6.01667
Gujba,11449,CBa,100000.0,1984.0,11.49167,11.65833
Gursum,11465,H4/5,34650.0,1981.0,9.36667,42.41667
Hatford,11855,Stone-uncl,29000.0,1628.0,51.65,-1.51667
Hessle,11878,H5,20000.0,1869.0,59.85,17.66667
Holbrook,11894,L/LL6,220000.0,1912.0,34.9,-110.18333
Homestead,11901,L5,230000.0,1875.0,41.8,-91.86667
Hraschina,11916,"Iron, IID",49000.0,1751.0,46.1,16.33333
Hvittis,11989,EL6,14000.0,1901.0,61.18333,22.68333
Indarch,12027,EH4,27000.0,1891.0,39.75,46.66667
Jackalsfontein,12065,L6,48000.0,1903.0,-32.5,21.9
Jartai,12074,L6,20500.0,1979.0,39.7,105.8
Jelica,12078,LL6,34000.0,1889.0,43.83333,20.44167
Jianshi,12087,"Iron, IIIAB",600000.0,1890.0,30.80833,109.5
Jilin,12171,H5,4000000.0,1976.0,44.05,126.16667
Johnstown,12198,Diogenite,40300.0,1924.0,40.35,-104.9
Juancheng,12203,H5,100000.0,1997.0,35.5,115.41667
Jumapalo,12209,L6,32490.0,1984.0,-7.71667,111.2
Juromenha,12213,"Iron, IIIAB",25250.0,1968.0,38.74028,-7.27
Juvinas,12214,Eucrite-mmict,91000.0,1821.0,44.71667,4.3
Kabo,12220,H4,13400.0,1971.0,11.85,8.21667
Kainsaz,12229,CO3.2,200000.0,1937.0,55.43333,53.25
Kapoeta,12251,Howardite,11355.0,1942.0,4.7,33.63333
Karkh,12262,L6,22000.0,1905.0,27.8,67.16667
Karoonda,12264,CK4,41730.0,1930.0,-35.08333,139.91667
Kasauli,30740,H4,16820.0,2003.0,29.58333,77.58333
Kayakent,12268,"Iron, IIIAB",85000.0,1961.0,39.26333,31.78
Kernouve,12284,H6,80000.0,1869.0,48.11667,-3.08333
Kesen,12286,H4,135000.0,1850.0,38.98333,141.61667
Khairpur,12288,EL6,13600.0,1873.0,29.53333,72.3
Kidairat,12300,H6,100000.0,1983.0,14.0,28.0
Kilabo,12307,LL6,19000.0,2002.0,12.76667,9.8
Knyahinya,12335,L/LL5,500000.0,1866.0,48.9,22.4
Kokubunji,12342,L6,11510.0,1986.0,34.3,133.95
Krähenberg,12353,LL5,16500.0,1869.0,49.32694,7.46472
Krymka,12364,LL3.2,50000.0,1946.0,47.83333,30.76667
Kunashak,12377,L6,200000.0,1949.0,55.78333,61.36667
Kunya-Urgench,12379,H5,1100000.0,1998.0,42.25,59.2
Kuttippuram,12384,L6,45000.0,1914.0,10.83333,76.03333
Kyushu,12390,L6,45000.0,1886.0,32.03333,130.63333
La Criolla,12396,L6,45000.0,1985.0,-31.23333,-58.16667
L'Aigle,12434,L6,37000.0,1803.0,48.76667,0.63333
Lancé,12455,CO3.5,51700.0,1872.0,47.7,1.06667
Laochenzhen,12466,H5,14250.0,1987.0,33.13333,115.16667
Leedey,12755,L6,51500.0,1943.0,35.88333,-99.33333
Limerick,14652,H5,50000.0,1813.0,52.56667,-8.78333
Lissa,14661,L6,12800.0,1808.0,50.2,14.85
Lohawat,14678,Howardite,40000.0,1994.0,26.96556,72.62667
Lost City,14711,H5,17000.0,1970.0,36.00833,-95.15
Łowicz,14718,Mesosiderite-A3,59000.0,1935.0,52.0,19.91667
Lundsgård,14755,L6,11000.0,1889.0,56.21667,13.03333
Luponnas,14757,H3-5,14000.0,1753.0,46.21667,5.0
Machinga,15371,L6,93200.0,1981.0,-15.21222,35.24222
Mahadevpur,47361,H4/5,70500.0,2007.0,27.66667,95.78333
Mangwendi,15405,LL6,22300.0,1934.0,-17.65,31.6
Marion (Iowa),15424,L6,28400.0,1847.0,41.9,-91.6
Marjalahti,15426,"Pallasite, PMG",45000.0,1902.0,61.5,30.5
Mauerkirchen,15446,L6,19000.0,1768.0,48.18333,13.13333
Mbale,15455,L5/6,150000.0,1992.0,1.06667,34.16667
Meester-Cornelis,15470,H5,24750.0,1915.0,-6.23333,106.88333
Menow,15485,H4,10500.0,1862.0,53.18333,13.15
Merua,15492,H5,71400.0,1920.0,25.48333,81.98333
Mezö-Madaras,16628,L3.7,22700.0,1852.0,46.5,25.73333
Milena,16640,L6,10000.0,1842.0,46.18333,16.1
Millbillillie,16643,Eucrite-mmict,330000.0,1960.0,-26.45,120.36667
Miller (Arkansas),16645,H5,16700.0,1930.0,35.4,-92.05
Mocs,16709,L5-6,300000.0,1882.0,46.8,24.03333
Modoc (1905),16711,L6,35000.0,1905.0,38.5,-101.1
Molina,16715,H5,144000.0,1858.0,38.11667,-1.16667
Montferré,16727,H5,149000.0,1923.0,43.39056,1.9625
Mount Browne,16766,H6,11300.0,1902.0,-29.8,141.7
Mount Tazerzait,16804,L5,110000.0,1991.0,18.7,4.8
Mount Vaisi,16805,Stone-uncl,17000.0,1637.0,44.08333,6.86667
Murchison,16875,CM2,100000.0,1969.0,-36.61667,145.2
Murray,16882,CM2,12600.0,1950.0,36.6,-88.1
Nakhla,16898,Martian (nakhlite),10000.0,1911.0,31.31667,30.35
Nakhon Pathom,16899,L6,23200.0,1923.0,13.73333,100.08333
Nan Yang Pao,16903,L6,52900.0,1917.0,35.66667,103.5
Naoki,16908,H6,17000.0,1928.0,19.25,77.0
Nerft,16945,L6,10250.0,1864.0,56.5,21.5
New Concord,16953,L6,230000.0,1860.0,40.0,-81.76667
New Halfa,16954,L4,12000.0,1994.0,15.36667,35.68333
New Orleans,16960,H5,19256.0,2003.0,29.94718,-90.10976
N'Goureyma,16968,"Iron, ungrouped",37500.0,1900.0,13.85,-4.38333
Ningbo,16980,"Iron, IVA",14250.0,1975.0,29.86667,121.48333
N'Kandhla,16983,"Iron, IID",17200.0,1912.0,-28.56667,30.7
Norton County,17922,Aubrite,1100000.0,1948.0,39.68333,-99.86667
Nuevo Mercurio,17938,H5,50000.0,1978.0,24.3,-102.13333
Ochansk,17979,H4,500000.0,1887.0,57.78333,55.26667
Ogi,17994,H6,14360.0,1741.0,33.28333,130.2
Ohaba,17995,H5,16250.0,1857.0,46.06667,23.58333
Okniny,18002,LL6,12000.0,1834.0,50.83333,25.5
Oldenburg (1930),18009,L6,16570.0,1930.0,52.95,8.16667
Olivenza,18013,LL5,150000.0,1924.0,38.71667,-7.06667
Olmedilla de Alarcón,18015,H5,40000.0,1929.0,39.56667,-2.1
Omolon,18019,"Pallasite, PMG",250000.0,1981.0,64.02,161.80833
Orgueil,18026,CI1,14000.0,1864.0,43.88333,1.38333
Oum Dreyga,31282,H3-5,17000.0,2003.0,24.3,-13.1
Ourique,18052,H4,20000.0,1998.0,37.60833,-8.28
Palinshih,18077,Iron,18000.0,1914.0,43.48333,118.61667
Pampanga,18093,L5,10500.0,1859.0,15.08333,120.7
Paragould,18101,LL5,408000.0,1930.0,36.06667,-90.5
Paranaiba,18103,L6,100000.0,1956.0,-19.13333,-51.66667
Park Forest,18106,L5,18000.0,2003.0,41.48472,-87.67917
Parnallee,18108,LL3.6,77600.0,1857.0,9.23333,78.35
Patwar,18171,Mesosiderite-A1,37350.0,1935.0,23.15,91.18333
Pavlograd,18176,L6,40000.0,1826.0,48.53333,35.98333
Peace River,18180,L6,45760.0,1963.0,56.13333,-117.93333
Peekskill,18782,H6,12570.0,1992.0,41.28333,-73.91667
Peña Blanca Spring,18786,Aubrite,70000.0,1946.0,30.125,-103.11667
Perpeti,18793,L6,23474.0,1935.0,23.325,91.0
Pervomaisky,18798,L6,66000.0,1933.0,56.63333,39.43333
Phillips County (stone),18808,L6,57900.0,1901.0,40.0,-99.25
Phuoc-Binh,18812,L5,11000.0,1941.0,15.71667,108.1
Pillistfer,18822,EL6,23250.0,1863.0,58.66667,25.73333
Piplia Kalan,18831,Eucrite-mmict,42000.0,1996.0,26.03472,73.94167
Portales Valley,18874,H6,71400.0,1998.0,34.175,-103.295
Pultusk,18901,H5,250000.0,1868.0,52.76667,21.26667
Putinga,18905,L6,300000.0,1937.0,-29.03333,-53.05
Quesa,22360,"Iron, IAB-ung",10750.0,1898.0,39.0,-0.66667
Quija,22361,H,17450.0,1990.0,44.61667,126.13333
Raghunathpura,22371,"Iron, IIAB",10200.0,1986.0,27.72528,76.465
Rahimyar Khan,31302,L5,67225.0,1983.0,28.225,70.2
Rasgrad,22396,Stone-uncl,24700.0,1740.0,43.5,26.53333
Reliegos,22584,L5,17300.0,1947.0,42.475,-5.33333
Rembang,22585,"Iron, IVA",10000.0,1919.0,-6.73333,111.36667
Richardton,22599,H5,90000.0,1918.0,46.88333,-102.31667
Rose City,22766,H5,10600.0,1921.0,44.51667,-83.95
Ryechki,22791,L5,13000.0,1914.0,51.13333,34.5
Saint-Sauveur,23101,EH5,14000.0,1914.0,43.73333,1.38333
Saint-Séverin,23102,LL6,271000.0,1966.0,45.3,0.23333
Saratov,23176,L4,200000.0,1918.0,52.55,46.55
Seoni,23500,H6,20000.0,1966.0,21.68389,79.50083
Sevrukovo,23509,L5,101000.0,1874.0,50.61667,36.6
Shelburne,23529,L5,18600.0,1904.0,44.05,-80.16667
Sikhote-Alin,23593,"Iron, IIAB",23000000.0,1947.0,46.16,134.65333
Sivas,23617,H6,40000.0,1989.0,39.82467,36.13583
Soko-Banja,23661,LL4,80000.0,1877.0,43.66667,21.86667
Sone,23667,H5,17100.0,1866.0,35.16667,135.33333
Songyuan,23668,L6,36900.0,1993.0,45.25,125.0
St. Mark's,23090,EH5,13780.0,1903.0,-32.01667,27.41667
St. Michel,23093,L6,17000.0,1910.0,61.65,27.2
Ställdalen,23712,H5,34000.0,1876.0,59.93333,14.95
Stannern,23713,Eucrite-mmict,52000.0,1808.0,49.28333,15.56667
Sterlitamak,23724,"Iron, IIIAB",325000.0,1990.0,53.66667,55.98333
Strathmore,23729,L6,13400.0,1917.0,56.58333,-3.25
Stretchleigh,23732,Stone-uncl,10400.0,1623.0,50.38333,-3.95
St-Robert,23733,H5,25400.0,1994.0,45.96861,-72.97806
Suizhou,23738,L6,260000.0,1986.0,31.61667,113.46667
Sulagiri,48951,LL6,110000.0,2008.0,12.66667,78.03333
Tagish Lake,23782,C2-ung,10000.0,2000.0,59.70444,-134.20139
Tambakwatu,23795,L6,10500.0,1975.0,-7.75,112.76667
Tamdakht,48691,H5,100000.0,2008.0,31.16333,-7.015
Tatahouine,23884,Diogenite,12000.0,1931.0,32.95,10.41667
Tauti,23888,L6,21000.0,1937.0,46.71667,23.5
Tenham,23897,L6,160000.0,1879.0,-25.73333,142.95
Tennasilm,23898,L4,28500.0,1872.0,58.03333,26.95
Thika,54493,L6,14200.0,2011.0,-1.00278,37.15028
Thuathe,23976,H4/5,45300.0,2002.0,-29.33333,27.58333
Tieschitz,23989,H/L3.6,28000.0,1878.0,49.6,17.11667
Tilden,23998,L6,74800.0,1927.0,38.2,-89.68333
Timochin,24004,H5,65500.0,1807.0,54.5,35.2
Tjabe,24011,H6,20000.0,1869.0,-7.08333,111.53333
Tjerebon,24012,L5,16500.0,1922.0,-6.66667,106.58333
Tourinnes-la-Grosse,24038,L6,14500.0,1863.0,50.78333,4.76667
Trenzano,24046,H3/4,11800.0,1856.0,45.46667,10.0
Treysa,24050,"Iron, IIIAB-an",63000.0,1916.0,50.91667,9.18333
Tuan Tuc,24060,L6,13100.0,1921.0,9.66667,105.66667
Tugalin-Bulen,24062,H6,10000.0,1967.0,45.46667,105.38333
Tuxtuac,24086,LL5,30000.0,1975.0,21.66667,-103.36667
Tysnes Island,24094,H4,19860.0,1884.0,60.0,5.61667
Uberaba,24096,H5,40000.0,1903.0,-19.81667,-48.78333
Udei Station,24101,"Iron, IAB-ung",103000.0,1927.0,7.95,8.08333
Uzcudun,24140,L,20000.0,1948.0,-44.11667,-66.15
Valera,24149,L5,50000.0,1972.0,9.31667,-70.62833
Vengerovo,24158,H5,10800.0,1950.0,56.13333,77.26667
Veramin,24162,Mesosiderite-B2,54000.0,1880.0,35.33333,51.63333
Vigarano,24174,CV3,15000.0,1910.0,44.85,11.4
Vouillé,24191,L6,20000.0,1831.0,46.63333,0.16667
Walters,24210,L6,28100.0,1946.0,34.33333,-98.3
Weston,24249,H4,150000.0,1807.0,41.266667,-73.266667
Wiluna,24281,H5,150000.0,1967.0,-26.59278,120.32833
Wold Cottage,24325,L6,25000.0,1795.0,54.13667,-0.41333
Woolgorong,24334,L6,36000.0,1960.0,-27.75,115.83333
Wuan,24340,H6,50000.0,1986.0,36.75,114.25
Xingyang,24346,H6,75500.0,1977.0,32.33333,114.31667
Yangchiang,30348,H5,20000.0,1954.0,21.83333,111.83333
Yardymly,30352,"Iron, IAB complex",150200.0,1959.0,38.93333,48.25
Yatoor,30358,H5,13600.0,1852.0,14.3,79.76667
Yonozu,30366,H4/5,31650.0,1837.0,37.75,139.0
Zag,30384,H3-6,175000.0,1998.0,27.33333,-9.33333
Zagami,30386,Martian (shergottite),18000.0,1962.0,11.73333,7.08333
Zaoyang,30391,H5,14250.0,1984.0,32.3,112.75
Zavid,30396,L6,95000.0,1897.0,44.4,19.11667
Zemaitkiemis,30399,L6,44100.0,1933.0,55.3,25.0
Zhaodong,30404,L4,42000.0,1984.0,45.81667,125.91667
Zhovtnevyi,30407,H6,107000.0,1938.0,47.58333,37.25
Abbott,5,H3-6,21100.0,1951.0,36.3,-104.28333
Acfer 329,336,L4/5,30000.0,2001.0,27.58333,4.1
Acfer 336,343,L3.8,19400.0,2002.0,27.61667,4.06667
Acfer 353,359,Eucrite-cm,11935.0,2001.0,27.48917,3.89
Acfer 379,35338,H4,14764.0,2004.0,27.4114,3.70467
Achilles,369,H5,16000.0,1924.0,39.77667,-100.81333
Acme,371,H5,75000.0,1947.0,33.63333,-104.26667
Acuña,373,"Iron, IIIAB",217700.0,1981.0,29.31667,-100.96667
ad-Dahbubah,376,H5,90000.0,1961.0,19.83333,51.25
Admire,380,"Pallasite, PMG",180000.0,1881.0,38.7,-96.1
Adrian,388,H4,22600.0,1936.0,35.15,-102.71667
Adzhi-Bogdo (iron),389,"Iron, IAB complex",582000.0,1952.0,44.86667,95.41667
Aggie Creek,393,"Iron, IIIAB",43000.0,1942.0,64.88333,-163.16667
Agoudal,57354,"Iron, IIAB",100000.0,2000.0,31.98457,-5.51528
Agua Blanca,397,"Iron, IIIAB",49000.0,1938.0,-28.91667,-66.95
Ahumada,419,"Pallasite, PMG",52600.0,1909.0,30.7,-105.5
Ainsworth,422,"Iron, IIAB",80650.0,1907.0,42.6,-99.8
Al Haggounia 001,44857,Aubrite,3000000.0,2006.0,27.5,-12.5
Al Huqf 010,443,L6,41539.3,2002.0,19.86785,57.0028
Al Huqf 064,48536,H4,12834.0,2002.0,19.40412,57.27497
Alamogordo,449,H5,13600.0,1938.0,32.9,-105.93333
Alatage,452,"Iron, IIIAB",37500.0,1959.0,42.33333,93.0
Albin (pallasite),455,"Pallasite, PMG",37600.0,1915.0,41.5,-104.1
Albin (stone),456,L,15400.0,1949.0,41.41667,-104.1
Albion,457,"Iron, IVA",12280.0,1966.0,46.83333,-117.25
Aldama (a),459,"Iron, IIIAB",11000.0,1985.0,28.83333,-105.86667
Alikatnima,471,"Iron, ungrouped",20000.0,1931.0,-23.33333,134.11667
Aliskerovo,472,"Iron, IIIE-an",58400.0,1977.0,67.88333,167.5
al-Jimshan,473,H4,11450.0,1955.0,20.7,52.83333
Alkhamasin,475,"Iron, IIAB",1200000.0,1973.0,20.6,44.88333
Allan Hills 84005,608,L5,12000.0,1984.0,-76.89102,156.89321
Allan Hills 84006,609,H4/5,16000.0,1984.0,-76.76228,158.77438
Allan Hills A76001,1308,L6,20151.0,1976.0,-76.75,159.33333
Allan Hills A76003,1310,L6,10495.0,1976.0,-76.71667,159.66667
Allan Hills A76009,1316,L6,407000.0,1976.0,-76.71667,159.66667
Allan Hills A77226,1537,H4,15323.0,1977.0,-76.71667,159.66667
Allan Hills A77250,1561,"Iron, IAB-MG",10555.0,1977.0,-76.71667,159.66667
Allan Hills A77283,1593,"Iron, IAB-MG",10510.0,1977.0,-76.71667,159.66667
Allan Hills A78084,1699,H3.9,14280.0,1978.0,-76.71667,159.66667
Allan Hills A81013,1973,"Iron, IIAB",17727.0,1981.0,-76.74756,158.84338
Altonah,2286,"Iron, IVA",21500.0,1932.0,40.56667,-110.48333
Alvord,2287,"Iron, IVA",17500.0,1976.0,43.32222,-96.28889
Angelica,2300,"Iron, IIIAB",14800.0,1916.0,44.25,-88.25
Annaheim,2306,"Iron, IAB-sLL",13500.0,1916.0,52.33333,-104.86667
Answer,2309,Iron,11090.0,1970.0,-21.65972,140.90694
Anthony,2310,H5,20000.0,1919.0,37.08333,-98.05
Anton,2311,H4,41800.0,1965.0,33.7825,-102.18111
Anyujskij,2312,"Iron, IIAB",100000.0,1981.0,66.9,164.2
Apoala,2317,"Iron, IIIAB",85000.0,1889.0,17.7,-97.0
Aprel'sky,2319,"Iron, IIIAB",54600.0,1969.0,53.3,126.11667
Arapahoe,2323,L5,19083.0,1940.0,38.8,-102.2
Araslanovo,2324,L/LL5,132000.0,1973.0,55.14167,48.2
Arcadia,2326,LL6,19400.0,1937.0,41.41667,-99.1
Arispe,2332,"Iron, IC",683000.0,1896.0,30.33333,-109.98333
Arltunga,2334,"Iron, IID-an",18100.0,1908.0,-23.33333,134.66667
Armanty,2335,"Iron, IIIE",28000000.0,1898.0,47.0,88.0
Arriba,2339,L5,31100.0,1936.0,39.3,-103.25
Artracoona,2341,L6,20810.0,1914.0,-29.06667,139.91667
Ashfork,2348,"Iron, IAB-MG",27000.0,1901.0,35.25,-112.5
Ashmore,2349,H5,55400.0,1969.0,32.9,-102.28333
Ashuwairif 001,51563,H4,14566.0,2008.0,29.35944,14.25528
Ashuwairif 002,51564,L5/6,11953.0,2008.0,29.37972,14.26972
Ashuwairif 004,53630,L6,15750.0,2008.0,29.36583,14.27611
Asuka 87034,2391,L4,19064.5,1987.0,-72.0,26.0
Asuka 87251,2608,LL6,46000.0,1987.0,-72.0,26.0
Asuka 881986,4695,L6,10147.0,1988.0,-72.0,26.0
Aswan,4882,"Iron, IAB-ung",12000.0,1955.0,23.98611,32.62361
Augusta County,4897,"Iron, IIIAB",76000.0,1858.0,38.16667,-79.08333
Augustinovka,4898,"Iron, IIIAB",400000.0,1890.0,48.06667,35.08333
Avoca (Western Australia),4909,"Iron, IIIAB",37850.0,1966.0,-30.85,122.31667
Babb's Mill (Blake's Iron),4915,"Iron, ungrouped",136000.0,1876.0,36.3,-82.88333
Bacubirito,4919,"Iron, ungrouped",22000000.0,1863.0,26.2,-107.83333
Bagnone,4921,"Iron, IIIAB",48000.0,1904.0,44.31667,9.98333
Ballinoo,4931,"Iron, IIC",42200.0,1892.0,-27.7,115.76667
Balsas,4932,"Iron, IIIAB",41000.0,1974.0,-7.53133,-46.04117
Baquedano,4939,"Iron, IIIAB",22000.0,1932.0,-23.3,-69.88333
Barranca Blanca,4950,"Iron, IIE-an",12000.0,1855.0,-28.08333,-69.33333
Barratta,4951,L4,200000.0,1845.0,-35.3,144.56667
Barrilla,4952,H5,11100.0,1994.0,30.78333,-103.46667
Barwise,4955,H5,10400.0,1950.0,34.0,-101.5
Bayard,4978,L5,75000.0,1982.0,41.81667,-103.36667
Baygorria,4980,"Iron, IAB complex",80000.0,1994.0,-33.0,-56.0
Bear Creek,4982,"Iron, IIIAB",227000.0,1866.0,39.6,-105.3
Bear Lodge,4983,"Iron, IIIAB",48500.0,1931.0,44.5,-104.2
Beaver,4985,L5,25628.0,1940.0,36.8,-100.53333
Bechar 001,4988,L6,39000.0,1998.0,30.83333,-3.33333
Bechar 002,4989,H6,12000.0,1998.0,30.83333,-3.33333
Beeler,4994,LL6,11620.0,1924.0,38.53333,-100.21667
Beenham,4995,L5,44400.0,1937.0,36.21667,-103.65
Bella Roca,5003,"Iron, IIIAB",33000.0,1888.0,24.9,-105.4
Belle Plaine,5004,L6,78800.0,1950.0,37.31667,-97.25
Bellsbank,5006,"Iron, IIG",38000.0,1955.0,-28.08333,24.08333
Belmont,5008,H6,25300.0,1958.0,42.73333,-90.35
Bencubbin,5014,CBa,118000.0,1930.0,-30.75,117.78333
Bendegó,5015,"Iron, IC",5360000.0,1784.0,-10.11667,-39.2
Bendock,5016,Pallasite,27000.0,1898.0,-37.15,148.91667
Benedict,5017,"Iron, IIIAB",16380.0,1970.0,41.0,-97.53333
Benjamin,5020,H4/5,51800.0,1969.0,33.58333,-99.8
Bennett County,5022,"Iron, IIAB",89000.0,1934.0,43.5,-101.25
Benthullen,5025,L6,17000.0,1951.0,53.05,8.1
Big Rock Donga,5044,H6,19000.0,1970.0,-30.55,130.96667
Bilibino,5046,"Iron, IIAB",1000000.0,1981.0,67.3,160.8
Billings,5047,"Iron, IIIAB",24500.0,1903.0,37.06667,-93.55
Bingera,5050,"Iron, IIAB",10841.0,1880.0,-29.88333,150.56667
Binya,5052,"Iron, IIIF",11300.0,1981.0,-34.225,146.38167
Bischtübe,5057,"Iron, IAB-sLL",48250.0,1888.0,51.95,62.2
Bison,5061,LL6,11000.0,1958.0,38.30667,-99.71
Bitburg,5062,"Iron, IAB complex",1500000.0,1805.0,49.96667,6.53333
Blanca Estela,45973,"Iron, IAB complex",15600.0,2002.0,-25.0,-69.5
Bledsoe,5074,H4,30500.0,1970.0,33.59167,-103.02667
Bluff (a),5087,L5,153300.0,1878.0,29.87861,-96.87222
Bluff (b),5088,L4,16000.0,1917.0,29.86306,-96.92667
Bocaiuva,5092,"Iron, ungrouped",64000.0,1965.0,-17.16667,-43.83333
Bodaibo,5094,"Iron, IVA",15900.0,1907.0,57.85,114.2
Bohumilitz,5099,"Iron, IAB-MG",59000.0,1829.0,49.05,13.76667
Bondoc,5103,Mesosiderite-B4,888600.0,1956.0,13.51667,122.45
Bonita Springs,5104,H5,41800.0,1938.0,26.26667,-81.75
Boolka,5108,H5,12000.0,1968.0,-30.06667,141.06667
Bou Azarif,53812,H5,100000.0,2010.0,31.15643,-5.15262
Boxhole,5126,"Iron, IIIAB",500000.0,1937.0,-22.61667,135.2
Brahin,5130,"Pallasite, PMG",823000.0,1810.0,52.5,30.33333
Brainard,5131,"Iron, IIIAB",138300.0,1978.0,41.15333,-96.955
Brenham,5136,"Pallasite, PMG-an",4300000.0,1882.0,37.5825,-99.16361
Brewster,5137,L6,17000.0,1940.0,39.25,-101.33333
Bridgewater,5139,"Iron, IID",13600.0,1890.0,35.71667,-81.86667
Bristol,5143,"Iron, IVA",20000.0,1937.0,36.56667,-82.18333
Broken Hill,5146,L6,34000.0,1994.0,-31.83333,141.76667
Brownfield (1937),5151,H3.7,40960.0,1937.0,33.21667,-102.18333
Bruceville,5155,L6,83000.0,1998.0,38.295,-121.405
Bruno,5158,"Iron, IIAB",13000.0,1931.0,52.26667,-105.35
Buck Mountains 003,44705,L6,34200.0,2005.0,34.7345,-114.21717
Budulan,5161,Mesosiderite-B4,100000.0,1962.0,50.56667,114.9
Buenaventura,5162,"Iron, IIIAB",113600.0,1969.0,29.8,-107.55
Bunjil,5164,L6,38750.0,1971.0,-29.62917,116.48222
Bunker Hill,54611,L6,28000.0,2002.0,38.84833,-98.72383
Bur-Abor,5166,"Iron, IIIAB",290000.0,1997.0,3.98333,41.65
Burgavli,5168,"Iron, IAB-MG",24900.0,1941.0,66.4,137.46667
Burlington,5172,"Iron, IIIE",68000.0,1819.0,42.75,-75.18333
Burns,57342,"Iron, IIIAB",18400.0,2003.0,39.86667,-106.88333
Butler,5182,"Iron, ungrouped",41000.0,1874.0,38.3,-94.36667
Cacaria,5188,"Iron, IIIAB",41400.0,1867.0,24.5,-104.8
Cachari,5189,Eucrite-mmict,23500.0,1916.0,-36.4,-59.5
Caddo County,5192,"Iron, IAB-ung",18000.0,1987.0,35.0,-98.33333
Caldwell,5197,L-imp melt,12900.0,1961.0,37.03333,-97.625
Calliham,5201,L6,40000.0,1958.0,28.41667,-98.25
Cambria,5203,"Iron, ungrouped",16300.0,1818.0,43.2,-78.8
Camel Donga,5204,Eucrite-mmict,25000.0,1984.0,-30.31667,126.61667
Campbellsville,5245,"Iron, IIIAB",15400.0,1929.0,37.36667,-85.36667
Campinorte,52093,"Iron, ungrouped",2000000.0,1992.0,-14.258,-49.15917
Campo del Cielo,5247,"Iron, IAB-MG",50000000.0,1575.0,-27.46667,-60.58333
Canyon Diablo,5257,"Iron, IAB-MG",30000000.0,1891.0,35.05,-111.03333
Cape of Good Hope,5261,"Iron, IVB",136000.0,1793.0,-33.5,26.0
Cape York,5262,"Iron, IIIAB",58200000.0,1818.0,76.13333,-64.93333
Caperr,5263,"Iron, IIIAB",113900.0,1869.0,-45.28333,-70.48333
Capot Rey,30449,H5,38000.0,2004.0,20.12593,10.2056
Carbo,5266,"Iron, IID",454000.0,1923.0,29.66667,-111.5
Carichic,5270,H5,17000.0,1983.0,27.93333,-107.05
Carlton,5277,"Iron, IAB-sLM",81200.0,1887.0,31.91667,-98.03333
Carnegie,5278,L6,132700.0,1963.0,35.16667,-98.64389
Carraweena,5281,L3.9,31600.0,1914.0,-29.23333,139.93333
Carthage,5282,"Iron, IIIAB",127000.0,1840.0,36.26667,-85.98333
Carver,5284,"Iron, IIAB",94000.0,1935.0,32.0,-86.0
Casas Grandes,5285,"Iron, IIIAB",1545000.0,1867.0,30.4,-107.8
Casimiro de Abreu,5289,"Iron, IIIAB",25000.0,1947.0,-22.46667,-42.21667
Cavour,5300,H6,26210.0,1938.0,44.221494,-98.059192
Cedar (Texas),5303,H4,26000.0,1900.0,29.82806,-96.90861
Cedartown,5304,"Iron, IIAB",11300.0,1898.0,34.01667,-85.26667
Cerro del Inca,5309,"Iron, IIIF",20600.0,1997.0,-22.21667,-68.90833
Changxing,5323,H5,27900.0,1964.0,31.33333,121.66667
Channing,5324,H5,15300.0,1936.0,35.71667,-102.28333
Charcas,5326,"Iron, IIIAB",1400000.0,1804.0,23.08333,-101.01667
Chebankol,5335,"Iron, IAB-sHL",127760.0,1938.0,53.66667,88.0
Chesterville,5343,"Iron, IIAB",16500.0,1849.0,34.7,-81.2
Chico,5346,L6,104800.0,1954.0,36.5,-104.2
Chihuahua City,5350,"Iron, IC",54000.0,1929.0,28.66667,-106.11667
Chilkoot,5351,"Iron, IIIAB",43000.0,1881.0,59.33333,-136.0
Chinga,5353,"Iron, ungrouped",209400.0,1913.0,51.05833,94.4
Chulafinnee,5362,"Iron, IIIAB",16220.0,1873.0,33.5,-85.66667
Chupaderos,5363,"Iron, IIIAB",24300000.0,1852.0,27.0,-105.1
Clark County,5373,"Iron, IIIF",11300.0,1937.0,38.0,-84.16667
Claytonville,5375,L5,15600.0,1964.0,34.34667,-101.49
Cleo Springs,5378,H4,24000.0,1960.0,36.43333,-98.43333
Cleveland,5379,"Iron, IIIAB",115000.0,1860.0,34.88333,-84.78333
Clifford,5380,L6,11360.0,1962.0,39.1,-103.25833
Clovis (no. 1),5385,H3.6,283000.0,1961.0,34.3,-103.13472
Clovis (no. 2),5386,L6,41300.0,1963.0,34.3,-103.13333
Coahuila,5387,"Iron, IIAB",2100000.0,1837.0,28.7,-102.73333
Cocklebiddy,5392,H5,19500.0,1949.0,-31.93333,126.21667
Coffeyville,51051,H5,35900.0,2006.0,37.01667,-95.66667
Coldwater (iron),5398,Iron,18400.0,1923.0,37.26667,-99.33333
Coldwater (stone),5399,H5,16000.0,1924.0,37.26667,-99.33333
Cole Creek,5400,H5,16300.0,1991.0,41.35,-99.11667
Colomera,5404,"Iron, IIE",134000.0,1912.0,37.43333,-3.65
Colonia Obrera,5405,"Iron, IIIE",12200.0,1973.0,24.01667,-104.66667
Colton,5410,"Iron, IIIAB",19670.0,1993.0,46.57056,-117.09861
Comanche (iron),5414,"Iron, IAB-sLL",19700.0,1940.0,32.01667,-98.7
Conception Junction,53877,"Pallasite, PMG-an",17000.0,2006.0,40.266667,-94.683333
Concho,5417,L6,93500.0,1939.0,32.0,-101.5
Cook 001,5421,H5,105000.0,1989.0,-30.33333,130.53333
Cook 007,5427,H4,100000.0,1989.0,-30.61667,130.41667
Coolac,5432,"Iron, IAB-MG",19280.0,1874.0,-34.96667,148.125
Coopertown,5438,"Iron, IIIE",16800.0,1860.0,36.43333,-87.0
Cope,5440,H5,12000.0,1934.0,39.66667,-102.83333
Copiapo,5442,"Iron, IAB-MG",20000.0,1863.0,-27.3,-70.4
Corowa,5446,"Iron, IIF",11340.0,1964.0,-36.0,146.36667
Cosby's Creek,5450,"Iron, IAB-MG",960000.0,1837.0,35.78333,-83.25
Costilla Peak,5453,"Iron, IIIAB",35500.0,1881.0,36.83333,-105.23333
Covert,5456,H5,61000.0,1896.0,39.2,-98.78333
Crab Orchard,5461,Mesosiderite-A1,48500.0,1887.0,35.83333,-84.91667
Cranbourne,5463,"Iron, IAB-MG",8600000.0,1854.0,-38.1,145.3
Cratheús (1931),5466,"Iron, IVA",27500.0,1914.0,-5.25,-40.5
Credo,5468,L6,10820.0,1967.0,-30.36667,120.73333
Cruz del Aire,5478,"Iron, ungrouped",23000.0,1911.0,26.5,-100.0
Cruz del Eje,51739,"Iron, IAB complex",14000.0,1971.0,-30.75,-64.78333
Cuero,5493,H5,46500.0,1936.0,29.01667,-97.28333
Cullison,5495,H4,10000.0,1911.0,37.61667,-98.91667
Cumpas,5497,"Iron, IIIAB",28600.0,1903.0,30.0,-109.66667
Dadin,5503,Iron,27300.0,1949.0,-38.91667,-69.2
Dalgaranga,5506,Mesosiderite-A,12200.0,1923.0,-27.71667,117.25
Dalgety Downs,5507,L4,257000.0,1941.0,-25.33333,116.18333
Dalton,5509,"Iron, IIIAB",53000.0,1879.0,34.8,-84.98333
Dar al Gani 399,5947,L5,11455.0,1998.0,27.86667,15.94283
Dar al Gani 477,6025,L6,16128.0,1998.0,27.74767,16.003
Dar al Gani 595,6142,H5,14931.0,1998.0,27.63917,15.90133
Dar al Gani 610,6157,H4,44000.0,1998.0,26.85,16.73333
Dar al Gani 741,6288,H4,20500.0,1998.0,27.08167,16.28333
Dar al Gani 749,6296,CO3,95000.0,1999.0,27.30167,15.7645
Dar al Gani 779,6326,Howardite,18800.0,1999.0,26.99233,16.4375
Dar al Gani 955,6495,H6,18500.0,1999.0,27.13183,16.20767
Dar al Gani 956,6496,L6,15000.0,1997.0,27.13267,15.9925
Daraj 001,6540,H5,30000.0,1986.0,29.6425,11.73222
Darinskoe,6602,"Iron, IIC",11200.0,1984.0,51.41667,51.96667
Davis Mountains,6615,"Iron, IIIAB",689000.0,1903.0,30.75,-104.25
Davy (a),6616,L4,50600.0,1940.0,29.1,-97.6
Dayton,6620,"Iron, IAB-sLH",26300.0,1892.0,39.75,-84.16667
De Hoek,6622,"Iron, ungrouped",20930.0,1960.0,-29.38333,23.1
De Nova,6624,L6,12700.0,1940.0,39.85,-102.95
Deelfontein,6636,"Iron, IAB-MG",28000.0,1932.0,-30.18333,23.26667
Deep Springs,6637,"Iron, ungrouped",11500.0,1846.0,36.5,-79.75
Delegate,6641,"Iron, IIIAB-an",27700.0,1904.0,-37.0,149.03333
Densmore (1879),6656,L6,37200.0,1879.0,39.65,-99.68333
Densmore (1950),6657,H6,11300.0,1950.0,39.56583,-99.64722
Denver City,6661,"Iron, ungrouped",26100.0,1975.0,33.07139,-102.80028
Deport,6662,"Iron, IAB-sLL",15000.0,1926.0,33.51667,-95.3
Derrick Peak 00200,6666,"Iron, IIAB",10000.0,2000.0,-80.06667,156.38333
Derrick Peak 88017,6668,"Iron, IIAB",63000.0,1988.0,-80.06667,156.38333
Derrick Peak A78001,6677,"Iron, IIAB",15200.0,1978.0,-80.06667,156.38333
Derrick Peak A78005,6681,"Iron, IIAB",18600.0,1978.0,-80.06667,156.38333
Derrick Peak A78007,6683,"Iron, IIAB",11800.0,1978.0,-80.06667,156.38333
Derrick Peak A78008,6684,"Iron, IIAB",59400.0,1978.0,-80.06667,156.38333
Derrick Peak A78009,6685,"Iron, IIAB",138100.0,1978.0,-80.06667,156.38333
Derrick Peak A78011,6687,"Iron, IIAB",31800.0,1978.0,-80.06667,156.38333
Derrick Peak A78012,6688,"Iron, IIAB",26000.0,1978.0,-80.06667,156.38333
Derrick Peak A78013,6689,"Iron, IIAB",10600.0,1978.0,-80.06667,156.38333
Dhofar 005,6704,L6,125500.0,2000.0,18.16667,54.16667
Dhofar 007,6706,Eucrite-cm,21270.0,1999.0,18.335,54.18167
Dhofar 020,6719,H4/5,256000.0,2000.0,19.03333,54.51667
Dhofar 069,6768,H4,10083.0,1999.0,19.15867,54.731
Dhofar 1026,6828,H6,10500.0,2003.0,18.65952,54.2463
Dhofar 1027,6829,H5/6,14944.0,2003.0,18.66003,54.24553
Dhofar 1288,34504,H5,43600.0,2004.0,18.27833,54.285
Dhofar 1289,34505,L4,37000.0,2004.0,18.63333,54.42167
Dhofar 1426,35514,H~5,42850.0,2001.0,19.173,54.70407
Dhofar 1433,45837,H5,44790.0,2006.0,18.43333,54.1
Dhofar 1493,51054,L6,14000.0,2008.0,18.67378,54.45017
Dhofar 1511,53800,L~5,17973.0,2009.0,18.63988,54.248
Dhofar 1558,53884,L4,11400.0,2009.0,18.39317,54.66433
Dhofar 1565,51570,H5,43000.0,2008.0,18.2735,54.21367
Dhofar 1654,55572,L5,50000.0,2011.0,18.67877,54.2876
Dhofar 1700,56325,L6,39000.0,2010.0,18.86622,54.67967
Dhofar 1722,56345,H5,25000.0,2010.0,19.08188,54.71472
Dhofar 224,7008,H4,14974.0,2001.0,19.15833,54.57333
Dhofar 360,7143,LL3-6,15300.0,2000.0,19.04002,54.78383
Dhofar 379,7161,L6,25000.0,2000.0,19.0084,54.76913
Dhofar 446,7221,L5,12400.0,2001.0,18.93805,54.68658
Dhofar 721,7477,H4,13605.0,2001.0,18.79167,54.15333
Dimboola,7643,H5,16000.0,1944.0,-36.5,142.03333
Dimitrovgrad,7644,"Iron, IIIAB",100000.0,1949.0,43.04639,22.86389
Dimmitt,7645,H3.7,200000.0,1942.0,34.58333,-102.16667
Divnoe,7650,Achondrite-ung,12700.0,1981.0,45.7,43.7
Dix,7651,L6,44000.0,1927.0,41.23333,-103.48333
Djebel Chaab 002,7654,LL6,30616.0,2003.0,25.15592,0.82213
Djebel In-Azzene,7655,"Iron, IIIAB",12500.0,1990.0,27.86667,0.45
D'Orbigny,7714,Angrite,16550.0,1979.0,-37.66667,-61.65
Dorofeevka,7717,"Iron, IIF",12600.0,1910.0,53.33333,70.06667
Dronino,7732,"Iron, ungrouped",40000.0,2000.0,54.74667,41.42167
Drum Mountains,7733,"Iron, IIIAB",529000.0,1944.0,39.5,-112.9
Duchesne,7737,"Iron, IVA",22700.0,1906.0,40.38333,-110.86667
Duel Hill (1854),7738,"Iron, IVA",21800.0,1854.0,35.85,-82.7
Duel Hill (1873),7739,"Iron, IAB-MG",11300.0,1873.0,35.85,-82.7
Duketon,7740,"Iron, IIIAB",118300.0,1948.0,-27.5,122.36667
Dumas (a),7741,H5,46050.0,1956.0,35.9,-101.9
Dumont,47341,"Iron, IVB",27420.0,1994.0,33.81667,-100.51667
Duncanville,7744,H,17800.0,1961.0,32.63333,-96.86667
Dungannon,7747,"Iron, IAB-MG",13000.0,1922.0,36.85,-82.45
Dunganville,7748,"Iron, IIIAB",54000.0,1976.0,-42.55,171.35
Eagle Station,7761,"Pallasite, PES",36000.0,1880.0,38.61667,-84.96667
Edmonson (a),7768,L6,12000.0,1955.0,34.28333,-101.83333
Edmonson (b),7769,H4,14402.0,1981.0,34.28333,-101.83333
Edmonton (Kentucky),7771,"Iron, IAB-sLM",10200.0,1942.0,37.03333,-85.63333
Efremovka,7772,CV3,21000.0,1962.0,52.5,77.0
Egvekinot,7773,"Iron, IAB-sLM",10000.0,1970.0,66.8,178.2
El Bahrain,7790,L6,14000.0,1983.0,28.6,26.4
El Burro,7793,"Iron, IIAB",35900.0,1939.0,29.33333,-101.83333
El Capitan,7794,"Iron, IIIAB",27500.0,1893.0,33.5,-105.5
El Hammami,7806,H5,240000.0,1997.0,23.28333,-10.81667
El Perdido,7813,H5,30250.0,1905.0,-38.68333,-61.1
El Sampal,7817,"Iron, IIIAB",142000.0,1973.0,-44.53333,-70.36667
El Simbolar,7818,Iron,40000.0,1938.0,-30.63333,-64.88333
El Timbu,7820,Iron,500000.0,1942.0,-33.11667,-60.96667
Elephant Moraine 87538,8088,L6,11894.0,1987.0,-76.18333,157.16667
Elephant Moraine 92193,9594,H6,22000.0,1992.0,-76.04222,155.94038
Elga,10012,"Iron, IIE",28800.0,1959.0,64.7,141.2
Eli Elwah,10013,L6,15200.0,1888.0,-34.5,144.71667
Ellerslie,10020,L5,10200.0,1905.0,-28.9,146.76667
Ellicott,10021,"Iron, IAB-ung",15700.0,1960.0,38.80778,-104.56944
Elyria,10030,"Iron, IIIAB",10900.0,1971.0,38.28,-97.365
Emery,10031,Mesosiderite-A3,16700.0,1962.0,43.56333,-97.58333
Emsland,10035,"Iron, ungrouped",19000.0,1940.0,53.1,7.2
Esquel,10054,"Pallasite, PMG",755000.0,1951.0,-42.9,-71.33333
Estacado,10057,H6,290000.0,1883.0,33.9,-101.75
Ethiudna,10060,L4,74318.0,1977.0,-32.03333,139.78333
Etosha,10061,"Iron, IC",110700.0,1970.0,-18.5,16.0
Etter,10062,L5,450000.0,1965.0,35.98333,-101.9
Fairview,10070,"Iron, IIIAB",28800.0,1986.0,34.10139,-102.65
Faith,10071,H5,105000.0,1952.0,45.33333,-102.08333
Farley,10073,H5,19400.0,1936.0,36.33333,-104.05
Faucett,10077,H5,100000.0,1966.0,39.61667,-94.86667
Felsted,10082,"Iron, IIIAB",13500.0,1977.0,54.99056,9.49194
Finmarken,10103,"Pallasite, PMG",78300.0,1902.0,70.0,24.0
Finney,10104,L5,10700.0,1962.0,34.26667,-101.56667
Flandreau,10109,H5,21360.0,1983.0,44.04833,-96.59167
Florey,10112,H6,110800.0,1978.0,32.5225,-102.705
Floyd,10113,L4,13000.0,1966.0,34.19333,-103.575
Floydada,10114,"Iron, IIIAB",12500.0,1912.0,33.98333,-101.28333
Forestburg (a),10121,L4,26100.0,1957.0,33.50667,-97.65139
Forestburg (b),10122,L5,26600.0,1957.0,33.49556,-97.58861
Forrest 002,10125,L6,26000.0,1980.0,-30.98333,127.88333
Forsyth County,10165,"Iron, IIAB",22700.0,1891.0,36.1,-80.2
Fort Pierre,10167,"Iron, IIIAB",15900.0,1856.0,44.35,-100.38333
Four Corners,10172,"Iron, IAB-ung",25000.0,1924.0,37.0,-109.05
Franceville,10173,"Iron, IIIAB",18800.0,1890.0,38.81667,-104.61667
Franconia,10174,H5,100000.0,2002.0,34.71637,-114.22197
Frankfort (iron),10176,"Iron, IIIAB",10900.0,1866.0,38.2,-84.83333
Friona,10184,L5,21900.0,1981.0,34.54,-102.56833
Fukang,34491,"Pallasite, PMG",1003000.0,2000.0,44.43333,87.63333
Gaines County Park,10844,H5,13700.0,1977.0,32.83333,-102.73333
Galatia,10847,L6,23900.0,1971.0,38.64167,-98.88333
Gan Gan,10852,"Iron, IVA",83000.0,1984.0,-42.66667,-68.08333
Garabato,10856,H5,160000.0,1995.0,-28.86667,-60.2
Gascoyne Junction,10865,H5,10000.0,1978.0,-24.5,115.18333
Gebel Kamil,52031,"Iron, ungrouped",1600000.0,2009.0,22.01833,26.08778
Ghubara,10911,L5,1750000.0,1954.0,19.22778,56.14278
Gibeon,10912,"Iron, IVA",26000000.0,1836.0,-25.5,18.0
Gilgoin,10915,H5,147000.0,1889.0,-30.38333,147.2
Gladstone (iron),10920,"Iron, IAB-MG",736600.0,1915.0,-23.9,151.3
Gladstone (stone),10921,H4,57300.0,1936.0,36.3,-104.0
Glasgow,10927,"Iron, IIIAB",20400.0,1922.0,37.01667,-85.91667
Glen Rose (iron),10932,"Iron, ungrouped",11000.0,1934.0,32.25,-97.71667
Glenormiston,10933,"Iron, ungrouped",40800.0,1925.0,-22.9,138.71667
Glorieta Mountain,10935,"Pallasite, PMG-an",148000.0,1884.0,35.6,-105.8
Gnowangerup,10937,"Iron, IIIAB",33600.0,1976.0,-34.0,118.1
Gobabeb,10939,H4,27000.0,1969.0,-23.55,15.03333
Gold Basin,10940,L4,61000.0,1995.0,35.875,-114.23333
Gomez,10944,L6,47000.0,1974.0,33.18139,-102.40139
Goose Lake,10947,"Iron, IAB-sLL",1169500.0,1938.0,41.98,-120.54167
Goronyo,34019,H4,11000.0,2001.0,13.26667,5.4
Grand Rapids,10955,"Iron, ungrouped",51700.0,1883.0,42.96667,-85.76667
Grant,10957,"Iron, IIIAB",525000.0,1929.0,35.16667,-107.88333
Graves Nunataks 95200,10960,L5,25066.1,1995.0,-86.71667,-141.5
Graves Nunataks 98186,11176,H6,29000.0,1998.0,-86.71667,-141.5
Grayton,11177,H5,11300.0,1983.0,30.31167,-86.16667
Great Bend,11180,H6,28770.0,1983.0,38.395,-98.91583
Great Sand Sea 019,11190,LL6,12000.0,1999.0,25.53667,25.65778
Gressk,11200,"Iron, IIAB",303000.0,1955.0,53.23333,27.33333
Gretna,11201,L5,82000.0,1912.0,39.93333,-99.21667
Grosvenor Mountains 95500,11228,L6,10000.0,1995.0,-85.66667,175.0
Gruver,11428,H4,13100.0,1934.0,36.33333,-101.4
Guadalupe y Calvo,11431,"Iron, IIAB",58630.0,1971.0,26.1,-106.96667
Guanaco,11433,"Iron, IIG",13100.0,2000.0,-25.1,-69.53333
Guanghua,11434,"Iron, IVA",190000.0,1932.0,32.4,111.7
Guffey,11441,"Iron, ungrouped",309000.0,1907.0,38.76667,-105.51667
Guin,11445,"Iron, ungrouped",34500.0,1969.0,33.96667,-87.91667
Gun Creek,11451,"Iron, ungrouped",22700.0,1909.0,34.0,-111.0
Gundaring,11452,"Iron, IIIAB",112500.0,1937.0,-33.3,117.66667
Hagersville,11470,"Iron, IAB complex",30000.0,1999.0,42.96667,-80.15
Haig,11471,"Iron, IIIAB",503000.0,1951.0,-31.38333,125.63333
Hainholz,11473,Mesosiderite-A4,16500.0,1856.0,52.28333,8.91667
Hambleton,36590,"Pallasite, PMG",17600.0,2005.0,54.24028,-1.19889
Hamilton (Queensland),11483,L6,68000.0,1966.0,-28.48333,148.25
Hammadah al Hamra 001,11486,H5,19418.0,1990.0,29.0,12.23333
Hammadah al Hamra 019,11502,H6,13431.0,1990.0,29.06667,12.68333
Hammadah al Hamra 051,11534,H6,12000.0,1994.0,28.8435,12.99683
Hammadah al Hamra 087,11570,L6,22114.0,1995.0,28.59583,13.269
Hammadah al Hamra 148,11631,L5,15770.0,1995.0,28.71967,12.86433
Hammadah al Hamra 153,11636,H3.8-4,50000.0,1995.0,28.60033,13.5775
Hammadah al Hamra 173,11656,L6,45000.0,1996.0,28.63667,13.1965
Hammadah al Hamra 280,11763,CK4,26500.0,2000.0,28.47017,12.972
Hammadah al Hamra 296,11779,H5/6,27064.0,2000.0,29.1,12.31667
Hammadah al Hamra 328,11811,H5,30440.0,1999.0,28.95833,10.59167
Hammond,11813,"Iron, ungrouped",24000.0,1884.0,44.91667,-92.43333
Hammond Downs,11814,H4,27000.0,1950.0,-25.46667,142.8
Happy Canyon,11821,EL6/7,16300.0,1971.0,34.80167,-101.56667
Hardtner,11827,L6,13000.0,1972.0,37.06667,-98.66167
Harriman (Of),11840,"Iron, IVA",30000.0,1947.0,35.95,-84.56667
Harriman (Om),11841,"Iron, IIIAB",13000.0,1938.0,35.95,-84.56667
Harrisonville,11844,L6,46500.0,1933.0,38.65,-94.33333
Haskell,11849,L5,36000.0,1909.0,33.21333,-99.73167
Hasparos,11850,"Iron, IAB-MG",12880.0,1935.0,34.0,-105.5
Hassayampa,11851,H4,16000.0,1963.0,33.75,-112.66667
Haxtun,11863,H/L4,15500.0,1975.0,40.45667,-102.57834
Hebron,11867,H6,21820.0,1965.0,40.16667,-97.6
Henbury,11872,"Iron, IIIAB",2000000.0,1931.0,-24.56667,133.16667
Hermitage Plains,11877,L6,32000.0,1909.0,-31.73333,146.4
Hesston,11879,L6,12900.0,1951.0,38.11667,-97.43333
Hex River Mountains,11880,"Iron, IIAB",60000.0,1882.0,-33.31667,19.61667
Hill City,11886,"Iron, IVA",11700.0,1947.0,39.36667,-99.85
Hinojal,11887,L6,50000.0,1927.0,-32.36667,-60.15
Hoba,11890,"Iron, IVB",60000000.0,1920.0,-19.58333,17.91667
Holland's Store,11896,"Iron, IIAB",12200.0,1887.0,34.36667,-85.43333
Holyoke,11900,H4,11200.0,1933.0,40.56667,-102.3
Horace,11908,H5,19700.0,1940.0,38.35,-101.78333
Horh Uul,11909,"Iron, IIIAB",44000.0,2001.0,43.25,104.16667
Huckitta,11922,"Pallasite, PMG-an",2300000.0,1924.0,-22.36667,135.76667
Hugoton,11984,H5,350000.0,1927.0,37.2,-101.35
Huizopa,11985,"Iron, IVA",140000.0,1907.0,28.9,-108.56667
Hunter,11987,LL5,74600.0,1962.0,36.56,-97.66667
Huntsman,11988,H4,14500.0,1910.0,41.18333,-103.0
Ider,11999,"Iron, IIIAB",140000.0,1957.0,34.68333,-85.65
Ilafegh 008,12013,L5,26100.0,1989.0,21.6,1.66667
Ilimaes (iron),12022,"Iron, IIIAB",51700.0,1870.0,-26.0,-70.0
Imilac,12025,"Pallasite, PMG",920000.0,1822.0,-24.20333,-68.80667
Indian Valley,12029,"Iron, IIAB",14100.0,1887.0,36.93333,-80.5
Indianópolis,12031,"Iron, IIAB",14850.0,1989.0,-19.16667,-47.83333
Indio Rico,12032,H6,15000.0,1887.0,-38.33333,-60.88333
Ingella Station,12034,H5,50000.0,1987.0,-25.55,142.78333
Ioka,12040,L3.5,31500.0,1931.0,40.25,-110.08333
Iquique,12045,"Iron, IVB",12500.0,1871.0,-20.18333,-69.73333
Iron Creek,12047,"Iron, IIIAB",175000.0,1869.0,53.0,-112.0
Isheyevo,30726,CH/CBb,16000.0,2003.0,53.61667,56.33333
Isna,12051,CO3.8,23000.0,1970.0,24.83333,31.66667
Isoulane-n-Amahar,12052,L6,72000.0,1945.0,27.12917,8.66722
Ivanpah,12062,"Iron, IIIAB",58000.0,1880.0,35.33333,-115.31667
Jalu,12070,L6,150000.0,2000.0,27.95833,21.68333
Jaralito,12073,"Iron, IAB-MG",11138.0,1977.0,26.26583,-103.885
Jenkins,12080,"Iron, IAB-MG",55400.0,1946.0,36.82444,-93.76111
Jenny's Creek,12081,"Iron, IAB-MG",12000.0,1883.0,37.9,-82.38333
Jepara,53840,"Pallasite, PMG",499500.0,2008.0,-6.6,110.73333
Jerome (Kansas),12083,L4,29600.0,1894.0,38.76667,-100.73333
Jerslev,12084,"Iron, IIAB",40000.0,1976.0,55.608833,11.229167
Jiddat al Harasis 003,12091,L5,10830.0,1999.0,19.53,55.75833
Jiddat al Harasis 055,12119,L4-5,200000.0,2004.0,19.65167,55.69
Jiddat al Harasis 073,12135,L6,550000.0,2002.0,19.7,55.73333
Jiddat al Harasis 090,12149,L5,92667.6,2002.0,19.71678,56.6062
Jiddat al Harasis 091,12150,L5,123374.0,2002.0,19.69362,56.65432
Jiddat al Harasis 203,45839,Mesosiderite-C2,46200.0,2002.0,19.983,56.41368
Jiddat al Harasis 230,35549,L5,77000.0,2005.0,19.7127,56.58277
Jiddat al Harasis 267,35584,Mesosiderite,16005.5,2005.0,19.9997,56.41108
Jiddat al Harasis 317,45843,H5,21472.0,2001.0,19.36312,55.55723
Jiddat al Harasis 342,45866,L5,49750.0,2006.0,19.71458,56.54755
Jiddat al Harasis 355,51623,L~6,16879.1,2003.0,19.35885,55.54843
Jiddat al Harasis 406,48557,L6,33000.0,2006.0,19.53268,56.87225
Jiddat al Harasis 426,48577,L6,11170.1,2007.0,19.93787,56.39555
Jiddat al Harasis 574,51916,H4-6,13000.0,2009.0,19.75377,56.29692
Jiddat al Harasis 628,52779,H5,16000.0,2009.0,19.83956,55.76756
Jiddat al Harasis 664,56219,H5,12175.0,2011.0,19.82562,55.684
Joe Wright Mountain,12174,"Iron, IIIAB",42600.0,1884.0,35.76667,-91.5
Johnson City,12197,L6,10400.0,1937.0,37.55,-101.68333
Juanita de Angeles,12204,H5,85000.0,1992.0,28.41667,-105.08333
Julesburg,12208,L3.6,57900.0,1983.0,39.975,-102.26667
Juncal,12211,"Iron, IIIAB",104000.0,1866.0,-26.0,-69.25
Kaffir (d),12226,L5,26760.0,1981.0,34.67167,-101.815
Kalahari 009,30738,Lunar (basalt),13500.0,1999.0,-20.9818,22.9766
Kaldoonera Hill,12233,H6,12000.0,1956.0,-32.61667,134.85
Kalvesta,12237,H4,10000.0,1968.0,38.08333,-100.25
Kansas City (1903),12248,H5,36000.0,1903.0,39.1,-94.63333
Karasburg,12257,"Iron, IIIAB?",12000.0,1964.0,-27.66667,18.96667
Karee Kloof,12259,"Iron, IAB-sLL",92100.0,1914.0,-31.6,25.8
Kargapole,12261,H4,21800.0,1961.0,55.88333,64.3
Kaufman,12267,L5,23000.0,1893.0,32.58333,-96.41667
Kearney,12269,H5,10000.0,1934.0,40.68333,-99.06667
Kelly,12273,LL4,44300.0,1937.0,40.46667,-103.03333
Kendall County,12274,"Iron, IAB-ung",21000.0,1887.0,29.4,-98.5
Kenna,12277,Ureilite,10900.0,1972.0,33.9,-103.55333
Kenton County,12280,"Iron, IIIAB",194000.0,1889.0,38.81667,-84.6
Keyes,12287,L6,142000.0,1939.0,36.71667,-102.5
Kielpa,12302,H5,13600.0,1948.0,-33.6,136.1
Kifkakhsyagan,12304,"Iron, IIIAB",18800.0,1972.0,64.4,172.7
Kimble County,12311,H6,153800.0,1918.0,30.41667,-99.4
Kingston,12318,"Iron, ungrouped",12900.0,1891.0,32.9,-107.73333
Klamath Falls,12330,"Iron, IIIF",17000.0,1952.0,42.16667,-121.85
Knowles,12334,"Iron, IIIAB",161000.0,1903.0,36.9,-100.21667
Kodaikanal,12338,"Iron, IIE",15900.0,1898.0,10.26667,77.4
Kokstad,12341,"Iron, IIIE",341000.0,1884.0,-30.55,29.41667
Koltsovo,30742,H4,20020.0,2004.0,54.7505,36.978
Kopjes Vlei,12345,"Iron, IIAB",13600.0,1914.0,-29.3,21.15
Korra Korrabes,12347,H3,140000.0,1996.0,-25.2,18.08333
Kouga Mountains,12352,"Iron, IIIAB",1173000.0,1903.0,-33.61667,24.0
Krasnojarsk,12356,"Pallasite, PMG-an",700000.0,1749.0,54.9,91.8
Kress (a),12358,L6,12500.0,1951.0,34.35833,-101.73
Kulnine,12372,L6,55300.0,1886.0,-34.15,141.78333
Kumerina,12375,"Iron, IIC",53500.0,1937.0,-24.91667,119.41667
Kumtag,49512,H5,26000.0,2008.0,41.66889,93.17306
Kyancutta,12386,"Iron, IIIAB",32700.0,1932.0,-33.28333,136.0
La Caille,12393,"Iron, ungrouped",626000.0,1828.0,43.73333,6.78333
La Grange,12399,"Iron, IVA",50800.0,1860.0,38.4,-85.36667
La Lande,12400,L5,30000.0,1933.0,34.45,-104.13333
La Porte,12401,"Iron, IIIAB",14540.0,1900.0,41.6,-86.71667
La Primitiva,12402,"Iron, IIG",27400.0,1888.0,-19.91667,-69.81667
La Villa,12405,H4,19800.0,1956.0,26.27167,-97.90167
Ladder Creek,12410,L6,35100.0,1937.0,38.61667,-101.63333
Laguna Manantiales,12413,Iron,92000.0,1945.0,-48.58333,-67.41667
Lahmada 009,12422,H3-6,70000.0,1999.0,27.16667,-9.5
Lahoma,12432,L5,21800.0,1963.0,36.38333,-98.08333
Lake Brown,12437,L6,23400.0,1919.0,-31.0,118.5
Lake Grace,12443,L6,10500.0,1956.0,-33.06667,118.21667
Lake Labyrinth,12444,LL6,25850.0,1924.0,-30.53333,134.75
Lake Murray,12446,"Iron, IIAB",270000.0,1933.0,34.1,-97.0
Lakewood,12450,L6,46500.0,1955.0,32.62972,-104.35
Lamesa,12452,"Iron, IAB-sLM",16900.0,1981.0,32.88333,-101.88333
Lamont,12453,Mesosiderite,38690.0,1940.0,38.07778,-96.02639
Lancaster County,12454,Iron,13000.0,1903.0,40.66667,-96.75
Landes,12457,"Iron, IAB-MG",69800.0,1930.0,38.9,-79.18333
Lanton,12463,"Iron, IIIAB",13780.0,1932.0,36.53333,-91.8
Larned,50998,Aubrite-an,28100.0,1977.0,38.1995,-99.162
Lazarev,12745,"Iron, ungrouped",10000.0,1961.0,-71.95,11.5
Lenarto,12763,"Iron, IIIAB",108500.0,1814.0,49.0,21.0
Leon,12764,H5,30000.0,1943.0,37.66667,-96.76667
Lewis Cliff 85319,12789,H5,11491.0,1985.0,-84.26398,161.39532
Lewis Cliff 85320,12790,H5,110224.0,1985.0,-84.26223,161.41628
Liangcheng,14645,"Iron, IIIAB",200000.0,1959.0,40.5,112.5
Lime Creek,14651,"Iron, IAB-ung",20000.0,1834.0,31.55,-87.51667
Linwood,14657,"Iron, IAB-MG",46000.0,1940.0,41.43333,-96.96667
Lismore,14660,"Iron, IIIAB?",10000.0,1959.0,-35.95,143.33333
Little River (b),14666,H4/5,11700.0,1965.0,38.44,-98.06667
Littlerock,14667,H6,19050.0,1979.0,34.51667,-117.98333
Lixian,56075,"Iron, IIAB",43000.0,2005.0,29.85167,111.59833
Locust Grove,14673,"Iron, IIAB",10000.0,1857.0,33.33333,-84.1
Lone Tree,14683,H4,20676.0,1971.0,41.5,-91.47917
Lonewolf Nunataks 94104,14688,H6,10172.0,1994.0,-81.33333,152.83333
Long Island,14694,L6,564000.0,1891.0,39.93333,-99.6
Longchang,14695,"Iron, IVA-an",158500.0,1781.0,29.3,105.3
Longtian,14696,"Iron, IIIAB",350000.0,1991.0,27.35,108.5
Loreto,14705,"Iron, IIIAB",94800.0,1896.0,26.01667,-111.36667
Los Reyes,14709,"Iron, IIIAB",19500.0,1897.0,19.26667,-97.28333
Los Sauces,14710,Iron,997000.0,1937.0,-29.41667,-66.85
Los Vientos 002,54617,L6,30750.0,2010.0,-24.68333,-69.76667
Los Vientos 003,54618,H5,25450.0,2011.0,-24.68333,-69.76667
Los Vientos 004,54619,H5,29300.0,2011.0,-24.68333,-69.76667
Los Vientos 028,57338,H~5,12110.0,2012.0,-24.68333,-69.76667
Lucky Hill,14749,"Iron, IIIAB",20500.0,1885.0,17.9,-77.63333
Lueders,14750,"Iron, IAB-MG",35400.0,1973.0,32.83611,-99.60417
Lutschaunig's Stone,14762,L6,100000.0,1861.0,-27.0,-70.0
Macy,15378,L6,42000.0,1984.0,34.21667,-103.91667
Madoc,15381,"Iron, IIIAB",168000.0,1854.0,44.5,-77.46667
Mafuta,15384,"Iron, IID",71500.0,1984.0,-16.9025,30.40722
Magura,15388,"Iron, IAB-MG",150000.0,1840.0,49.33333,19.48333
Maltahöhe,15399,"Iron, IAB-sLM",22270.0,1991.0,-24.91667,16.98333
Manitouwabing,15406,"Iron, IIIAB",39000.0,1962.0,45.44,-79.87556
Manlai,15407,"Iron, ungrouped",166800.0,1954.0,44.33333,106.5
Mantos Blancos,15408,"Iron, IVA",10300.0,1876.0,-23.45,-70.11667
Mapleton,15410,"Iron, IIIAB",49000.0,1939.0,42.18333,-95.71667
Maria da Fé,15416,"Iron, IVA",18000.0,1987.0,-22.3,-45.36667
Maria Elena (1935),15417,"Iron, IVA",15500.0,1935.0,-22.33333,-69.66667
Markovka,15427,H4,54200.0,1967.0,52.4,79.8
Marlow,15428,L5,68000.0,1936.0,34.6,-97.91667
Maslyanino,15439,"Iron, IAB complex",26000.0,1992.0,54.25,84.33333
Mayerthorpe,15449,"Iron, IAB complex",12610.0,1964.0,53.775,-115.03333
Mayfield,15450,H4,38400.0,1972.0,37.30833,-97.545
Mayodan,15452,"Iron, IIAB",15400.0,1920.0,36.38333,-79.86667
Mbosi,15456,"Iron, ungrouped",16000000.0,1930.0,-9.11667,33.06667
McKenzie Draw (a),15461,H4,11800.0,1989.0,32.925,-102.625
McKinney,15463,L4,150000.0,1870.0,33.18333,-96.71667
Mejillones,15472,"Iron, IIAB",14830.0,1875.0,-23.1,-70.5
Melrose (a),15475,L5,36400.0,1933.0,34.38333,-103.61667
Merceditas,15487,"Iron, IIIAB",42900.0,1884.0,-26.33333,-70.28333
Meteorite Hills 01005,16238,L5,19000.0,2001.0,-79.68333,159.75
Meteorite Hills A78028,16624,L6,20657.0,1978.0,-79.68333,155.75
Miami,16630,H5,57700.0,1930.0,35.66667,-100.6
Miles,16641,"Iron, IIE",265000.0,1992.0,-27.83333,150.33333
Millarville,16642,"Iron, IVA",15636.0,1977.0,50.79722,-114.30944
Millen,16644,H4,40800.0,1975.0,32.83528,-81.87389
Mills,16687,H6,88000.0,1970.0,36.23,-104.11889
Milly Milly,16688,"Iron, IIIAB",26500.0,1921.0,-26.11667,116.66667
Mincy,16694,Mesosiderite-B4,89400.0,1857.0,36.55,-93.1
Mission,16704,L,12000.0,1949.0,43.31667,-100.76667
Misteca,16705,"Iron, ungrouped",10000.0,1804.0,16.8,-97.1
Molong,16716,"Pallasite, PMG",104000.0,1912.0,-33.28333,148.88333
Monahans (1938),16718,"Iron, IIF",27900.0,1938.0,31.48333,-102.88333
Mont Dieu,16722,"Iron, ungrouped",360000.0,1994.0,49.55,4.86667
Moonbi,16734,"Iron, IIIF",13200.0,1892.0,-30.91667,151.28333
Moorabie,16735,L3.8-an,14040.0,1965.0,-30.01667,141.06667
Moorumbunna,16739,"Iron, IIIAB",77000.0,1943.0,-28.91667,136.25
Morasko,16741,"Iron, IAB-MG",290000.0,1914.0,52.46667,16.9
Morito,16745,"Iron, IIIAB",10100000.0,1600.0,27.05,-105.43333
Morland,16746,H6,295000.0,1890.0,39.33333,-100.06667
Morristown,16750,Mesosiderite-A3,16300.0,1887.0,36.2,-83.38333
Morrow County,51707,L6,18200.0,1999.0,45.5,-119.5
Mossgiel,16758,L4,32383.0,1967.0,-33.31667,144.78333
Mount Ayliff,16763,"Iron, IAB-MG",13600.0,1907.0,-30.81667,29.35
Mount Baldr A76002,16765,H6,13773.0,1976.0,-77.58389,160.37361
Mount Dooling,16771,"Iron, IC",734000.0,1909.0,-29.45,119.71667
Mount Dyrring,16772,Pallasite,11300.0,1903.0,-32.33333,151.2
Mount Edith,16773,"Iron, IIIAB",326000.0,1913.0,-22.5,116.16667
Mount Egerton,16774,Aubrite-an,22000.0,1941.0,-24.76667,117.7
Mount Joy,16779,"Iron, IIAB",384000.0,1887.0,39.78333,-77.21667
Mount Magnet,16780,"Iron, IAB-sHH",16600.0,1916.0,-28.16667,118.5
Mount Padbury,16785,Mesosiderite-A1,272000.0,1964.0,-25.66667,118.1
Mount Sir Charles,16803,"Iron, IVA",22900.0,1942.0,-23.83333,134.03333
Mount Vernon,16806,"Pallasite, PMG",159000.0,1868.0,36.93333,-87.4
Mrirt,16819,Iron,79900.0,1937.0,33.13333,-5.56667
Mud Dry Lake,16840,H3,18255.0,2002.0,37.8594,-117.02097
Muenatauray,16842,"Iron, IIAB",30000.0,1960.0,4.9,-61.2
Mulga (north),16847,H6,19900.0,1964.0,-30.18333,126.36667
Mundrabilla,16852,"Iron, IAB-ung",24000000.0,1911.0,-30.78333,127.55
Mungindi,16872,"Iron, IAB-sLM",51300.0,1897.0,-28.93333,148.95
Muonionalusta,16873,"Iron, IVA",230000.0,1906.0,67.8,23.1
Murnpeowie,16878,"Iron, IC",1143000.0,1909.0,-29.58333,139.9
Muslyumovo,16884,H4,10580.0,1964.0,55.3,53.2
Nahuel Niyeu,50766,H5,10540.0,2005.0,-40.53333,-66.63333
Nantan,16906,"Iron, IAB-MG",9500000.0,1958.0,25.1,107.7
Narraburra,16915,"Iron, IIIAB",32200.0,1855.0,-34.25,147.7
Naryilco,16918,LL6,27000.0,1975.0,-28.6,141.15
Nashville (iron),16920,Iron,18000.0,1934.0,35.96667,-77.96667
Nashville (stone),16921,L6,25000.0,1939.0,37.45,-98.41667
Navajo,16926,"Iron, IIAB",2184000.0,1921.0,35.33333,-109.5
Nazareth (e),16932,H6,13100.0,1977.0,34.58333,-102.05
Nazareth (iron),16933,"Iron, IIIAB",11310.0,1968.0,34.52667,-102.105
Needles,16936,"Iron, IID",45300.0,1962.0,34.44417,-114.8325
Neenach,16938,L6,13800.0,1948.0,34.8,-118.5
Negrillos,16939,"Iron, IIAB",28500.0,1936.0,-19.88333,-69.83333
Nelson County,16942,"Iron, IIIF",73030.0,1856.0,37.75,-85.5
Nenntmannsdorf,16943,"Iron, IIAB",12500.0,1872.0,50.96667,13.95
Ness County (1894),16946,L6,82000.0,1894.0,38.5,-99.6
Netschaëvo,16949,"Iron, IIE-an",250000.0,1846.0,54.23333,35.15
New Baltimore,16952,"Iron, ungrouped",20000.0,1922.0,40.0,-78.85
New Leipzig,16955,"Iron, IAB-MG",20000.0,1936.0,46.36667,-101.95
Nicolás Levalle,52413,L5,60000.0,1956.0,-38.85028,-62.87889
Nocoleche,16987,"Iron, IC-an",20000.0,1895.0,-29.86667,144.21667
Nordheim,16992,"Iron, ungrouped",15150.0,1932.0,28.86667,-97.61667
Norfolk,16993,"Iron, IIIAB",23000.0,1907.0,36.9,-76.3
Norquín,16996,"Iron, IIIAB",19250.0,1945.0,-37.71667,-70.61667
North Chile,17001,"Iron, IIAB",300000.0,1875.0,-23.0,-69.0
Northbranch,17010,H5,76000.0,1972.0,39.99167,-98.34167
Northwest Africa 1581,17340,L6,50200.0,2001.0,31.38333,-4.25
Northwest Africa 6203,51736,"Iron, IAB-MG",35400.0,2008.0,30.51667,-4.3
Northwest Africa 6903,53891,"Iron, IIIAB",50000.0,2008.0,32.37167,-6.36
Nova Petropolis,17928,"Iron, IIIAB",305000.0,1967.0,-29.43333,-50.91667
Novosibirsk,17932,H5/6,11410.0,1978.0,55.0,82.9
Nullarbor 001,17941,H5,40000.0,1935.0,-31.0,132.0
Oakley (iron),17972,"Iron, IIIF",111000.0,1926.0,42.33333,-113.7
Oakley (stone),17973,H6,27700.0,1895.0,38.95,-101.01667
Obernkirchen,17976,"Iron, IVA",41000.0,1863.0,52.26667,9.1
Ocotillo,17980,"Iron, IAB-MG",28570.0,1990.0,32.83333,-116.06667
Odessa (iron),17985,"Iron, IAB-MG",1600000.0,1922.0,31.71667,-102.4
O'Donnell,17987,H5,12700.0,1992.0,32.91217,-101.91867
Old Woman,18007,"Iron, IIAB",2753000.0,1976.0,34.46667,-115.23333
Opava,18021,Iron,14300.0,1925.0,49.96667,17.9
Orange River (iron),18023,"Iron, IIIAB",148800.0,1855.0,-30.0,25.0
Orlovka,18029,H5,40500.0,1928.0,56.0,76.75
Oroville,18032,"Iron, IIIAB",24500.0,1893.0,39.68333,-121.63333
Osseo,18037,"Iron, IAB complex",46300.0,1931.0,47.63333,-80.08333
Otchinjau,18041,"Iron, IVA",30000.0,1919.0,-16.5,14.0
Owasco,18060,L6,168400.0,1984.0,41.2,-103.68333
Owens Valley,18061,"Iron, IIIAB",192800.0,1913.0,37.46667,-118.0
Ozona,18066,H6,127500.0,1929.0,30.73333,-101.3
Page City,18070,"Iron, IVA",13630.0,1980.0,39.16667,-101.28333
Pallasovka,34061,"Pallasite, PMG",198000.0,1990.0,49.86667,46.61167
Palmas de Monte Alto,48959,"Iron, IIIAB",97000.0,1954.0,-14.3675,-43.02278
Pampa (b),18084,L4/5,10000.0,1986.0,-23.2,-70.43333
Pampa (c),18085,L4,25000.0,1986.0,-23.2,-70.43333
Pampa (d),18086,L5,12800.0,1986.0,-23.2,-70.43333
Pampa (e),18087,L6,10000.0,1987.0,-23.2,-70.43333
Pampa Providencia,18092,"Iron, IIIAB",12400.0,1994.0,-24.45,-69.57167
Pan de Azucar,18094,"Iron, IAB complex",19500.0,1887.0,-26.5,-69.5
Para de Minas,18099,"Iron, IVA",116300.0,1934.0,-19.86667,-44.61667
Park,18104,L6,13000.0,1969.0,39.11,-100.36167
Patos de Minas (hexahedrite),18113,"Iron, IIAB",32000.0,1925.0,-18.58333,-46.53333
Patos de Minas (octahedrite),18114,"Iron, IAB complex",200000.0,1925.0,-18.58333,-46.53333
Patricia,18115,H5,14900.0,1983.0,32.5,-102.03333
Patuxent Range 91500,18119,L5,16540.6,1991.0,-85.07424,-64.46576
Pooposo,18869,"Iron, IAB-MG",12000.0,1910.0,-18.33333,-66.83333
Pecora Escarpment 91009,18300,L6,18000.0,1991.0,-85.6882,-68.33784
Peetz,18783,L6,11500.0,1937.0,40.95,-103.08333
Pei Xian,18784,Iron,400000.0,1917.0,34.7,117.0
Perryville,18795,"Iron, IIC",17500.0,1906.0,37.73333,-89.85
Picacho,18814,"Iron, IIIAB",22000.0,1952.0,33.2,-105.0
Piedade do Bagre,18817,"Iron, ungrouped",59000.0,1922.0,-18.94167,-44.98333
Pierceville (iron),18819,"Iron, IIIAB",100000.0,1917.0,37.86667,-100.66667
Pinnaroo,18827,Mesosiderite-A4,39400.0,1927.0,-35.38333,140.91667
Piñon,18828,"Iron, ungrouped",17850.0,1928.0,32.66667,-105.1
Pinto Mountains,18829,L6,17900.0,1954.0,34.0,-115.78333
Pipe Creek,18830,H6,13600.0,1887.0,29.68333,-98.91667
Plains,18839,H5,34300.0,1964.0,33.28333,-102.76667
Plainview (1917),18841,H5,700000.0,1917.0,34.11667,-101.78333
Plateau du Tademait 003,31298,L5,10000.0,2002.0,28.29833,0.66667
Plymouth,18850,"Iron, IIIAB",14000.0,1893.0,41.33333,-86.31667
Point Berliet,18854,H5,42000.0,2001.0,20.537,9.53783
Point of Rocks (iron),18855,"Iron, IIIAB",18000.0,1956.0,36.5,-104.5
Polujamki,18861,H4,18350.0,1971.0,52.1,79.7
Porto Alegre,52091,"Iron, IIIE",200000.0,2005.0,-30.03306,-51.23
Potter,18878,L6,261000.0,1941.0,41.23333,-103.3
Prambanan,18884,"Iron, ungrouped",500000.0,1797.0,-7.56667,110.83333
Puente del Zacate,18894,"Iron, IIIAB",30790.0,1904.0,27.86667,-101.5
Purgatory Peak A77006,18904,"Iron, IAB-MG",19068.0,1977.0,-77.33333,162.3
Putnam County,18906,"Iron, IVA",32700.0,1839.0,33.25,-83.25
Qijiaojing,54610,"Iron, ungrouped",160000.0,2003.0,43.75,92.91667
Queen Alexandra Range 99001,21454,Iron,22000.0,1999.0,-84.0,168.0
Quijingue,22362,"Pallasite, PMG",59000.0,1984.0,-10.75,-39.21667
Quinn Canyon,22364,"Iron, IIIAB",1450000.0,1908.0,38.08333,-115.53333
Qulumat Nadqan 001,51400,L3.7,13901.0,2008.0,23.14302,49.53252
Rafrüti,22369,"Iron, ungrouped",18200.0,1886.0,47.0,7.83333
Ragland,22372,LL3.4,12100.0,1982.0,34.76778,-103.55
Ragland Hill,56382,H5,11800.0,1980.0,34.78333,-103.66667
Rakity,22375,L3,11400.0,1971.0,51.8,79.9
Ramlat as Sahmah 202,35636,Mesosiderite,18250.0,2002.0,20.00552,56.41628
Ramlat as Sahmah 204,35638,L6,10248.8,2003.0,20.6282,56.19198
Ramlat as Sahmah 276,50964,L6,12800.0,2008.0,20.5225,56.11768
Ramlat as Sahmah 418,55513,L6,28791.0,2010.0,20.3936,56.22002
Rancho de la Pila (1882),22389,"Iron, IIIAB",46500.0,1882.0,24.11667,-104.3
Rancho Gomelia,22391,"Iron, IIIAB",15650.0,1975.0,24.51667,-105.25
Ransom,22393,H4,15000.0,1938.0,38.61667,-99.93333
Rateldraai,22397,"Iron, IIIAB",549000.0,1909.0,-28.83333,21.13333
Reckling Peak A79015,22470,Mesosiderite-an,10022.0,1979.0,-76.21541,158.5392
Red River,22548,"Iron, IIIAB",800000.0,1808.0,32.0,-95.0
Red Rock,22549,"Iron, IIIAB",47600.0,1976.0,35.41667,-117.91667
Reed City,22552,"Iron, ungrouped",20000.0,1895.0,43.86667,-85.51667
Renfrow,22588,L6,81600.0,1986.0,36.98667,-97.555
Retuerta del Bullaque,56577,"Iron, IAB-MG",100000.0,1980.0,39.45889,-4.3775
Richfield,22600,LL3.7,40800.0,1983.0,37.22222,-101.68139
Richland,22601,"Iron, IIAB",50600.0,1951.0,31.9,-96.4
Rifle,22605,"Iron, IAB-MG",102700.0,1948.0,38.51667,-107.83333
Rio Limay,22609,L5,280000.0,1995.0,-39.85,-69.48333
Rodeo,22643,"Iron, IID",44000.0,1852.0,25.33333,-104.66667
Roebourne,22644,"Iron, IIIAB",86860.0,1892.0,-22.33333,118.0
Romero,22651,H4,17200.0,1938.0,35.76667,-102.95
Rosebud,22767,H5,54900.0,1915.0,30.81667,-97.05
Roundup,22771,"Iron, IIIAB",17590.0,1990.0,46.78333,-108.56667
Rowena,22772,H6,34700.0,1962.0,-29.8,148.63333
Roy (1933),22774,L5,47200.0,1933.0,35.95,-104.2
Ruff's Mountain,22779,"Iron, IIIAB",53070.0,1844.0,34.3,-81.4
Russel Gulch,22788,"Iron, IIIAB",13200.0,1863.0,39.8,-105.5
Sacramento Mountains,22794,"Iron, IIIAB",237200.0,1890.0,32.91667,-104.66667
Safsaf,22795,L6,11870.0,1998.0,30.26667,-4.66667
Saginaw,22797,Iron,44500.0,1979.0,32.86583,-97.32306
Saint Augustine,23080,"Iron, IID",22000.0,1974.0,40.71667,-90.41667
Saint-Aubin,23096,"Iron, IIIAB",472000.0,1968.0,48.48333,3.58333
Salaices,23105,H4,24500.0,1971.0,27.0,-105.25
Saline,23109,H5,30800.0,1901.0,39.4,-100.4
San Angelo,23117,"Iron, IIIAB",88000.0,1897.0,31.41667,-100.35
San Borjita,23118,L4,12300.0,1983.0,-27.55861,-56.13444
San Emigdio,23122,H4,36000.0,1887.0,36.0,-119.0
Sanclerlandia,23132,"Iron, IIIAB",279000.0,1971.0,-16.21667,-50.3
Sandia Mountains,23156,"Iron, IIAB",45000.0,1925.0,35.25,-106.5
Santa Apolonia,23160,"Iron, IIIAB",1316000.0,1872.0,19.21667,-98.3
Santa Catharina,23162,"Iron, IAB-ung",7000000.0,1875.0,-26.21667,-48.6
Santa Clara,23163,"Iron, IVB",63000.0,1976.0,24.46667,-103.35
Santa Luzia,23166,"Iron, IIAB",1918000.0,1921.0,-16.26667,-47.95
Santa Rosa,23167,"Iron, IC",825000.0,1810.0,5.91667,-73.0
Santa Vitoria do Palmar,35478,L3,50400.0,2003.0,-33.50944,-53.41083
Santiago Papasquiero,23169,"Iron, ungrouped",119500.0,1958.0,24.5,-106.0
São João Nepomuceno,23170,"Iron, IVA-an",15300.0,1960.0,-21.55,-43.01667
São Julião de Moreira,23172,"Iron, IIAB",162000.0,1883.0,41.76611,-8.58361
Saotome,23174,"Iron, IVA",10880.0,1892.0,36.5,137.0
Sardis,23177,"Iron, IAB complex",800000.0,1940.0,32.94889,-81.865
Sarepta,23178,"Iron, IAB-MG",14000.0,1854.0,48.48333,44.81667
Sargiin Gobi,23179,"Iron, IAB complex",17500.0,1964.0,45.9835,105.75883
Savannah,23189,"Iron, IIIAB",60000.0,1923.0,35.16667,-88.18333
Sayh al Uhaymir 001,23193,L5,450000.0,2000.0,20.51667,56.66667
Sayh al Uhaymir 250,23423,H4-6,16200.0,2003.0,20.58298,57.3165
Sayh al Uhaymir 266,23439,H5,25014.0,2002.0,20.70713,57.18317
Sayh al Uhaymir 270,23443,H4-6,43508.2,2003.0,20.72918,57.189
Sayh al Uhaymir 277,23450,H6,11643.0,2002.0,20.16658,57.07545
Sayh al Uhaymir 278,23451,L5,27860.8,2002.0,21.26172,57.17887
Sayh al Uhaymir 425,35714,L5-6,10006.7,2005.0,20.93015,57.14505
Sayh al Uhaymir 499,52430,H5,15900.0,2009.0,20.76467,57.26967
Sayh al Uhaymir 504,51866,L5/6,20000.0,2010.0,20.38333,56.76667
Schwetz,23461,"Iron, IIIAB",21500.0,1850.0,53.4,18.45
Scottsville,23466,"Iron, IIAB",10000.0,1867.0,36.76667,-86.16667
Scurry,23468,H5,118000.0,1937.0,32.5,-101.0
Seagraves,23469,H4,13000.0,1962.0,32.93333,-102.58333
Seagraves (c),23471,L6/7,26810.0,1989.0,32.98333,-102.56667
Seeläsgen,23474,"Iron, IAB-MG",102000.0,1847.0,52.26667,15.55
Selma,23486,H4,140600.0,1906.0,32.4,-87.0
Seminole,23488,H4,43900.0,1961.0,32.68333,-102.61667
Seneca Township,23499,"Iron, IVA",11500.0,1923.0,41.78333,-84.18333
Seymchan,23510,"Pallasite, PMG",323300.0,1967.0,62.9,152.43333
Seymour,23511,"Iron, IAB-MG",25900.0,1940.0,37.2375,-92.78694
Shalim 003,23516,H5,10350.0,2001.0,18.18233,55.50183
Shalim 004,23517,H5,10350.0,2001.0,18.18233,55.50183
Shangdu,23523,"Iron, IIIAB",247000.0,1957.0,42.5,114.0
Sharon Springs,23524,L6,23400.0,1983.0,38.77083,-101.79833
Shaw,23526,L6/7,17500.0,1937.0,39.53333,-103.33333
Shingle Springs,23535,"Iron, ungrouped",39000.0,1869.0,38.66667,-120.93333
Shirahagi,23536,"Iron, IVA",22700.0,1890.0,36.7,137.36667
Shişr 010,23548,L5,17604.0,2001.0,18.55,53.97
Shişr 036,23571,H3,10175.0,2002.0,18.50755,53.99325
Shişr 168,52604,H5,12688.0,2004.0,18.60667,53.95117
Shrewsbury,23581,"Iron, IAB-sLL",12000.0,1907.0,39.76667,-76.66667
Sierra Colorada,23588,L5,71300.0,1995.0,-40.8,-67.48333
Sierra Gorda,23590,"Iron, IIAB",26000.0,1898.0,-22.9,-69.35
Signal Mountain,23592,"Iron, IVA",63500.0,1919.0,32.5,-115.5
Silver Crown,23597,"Iron, IAB-MG",11600.0,1887.0,41.23333,-104.98333
Sinawan 001,23607,L6,28600.0,1991.0,31.0,11.66667
Singhur,23612,Pallasite?,14180.0,1847.0,18.31667,73.91667
Skookum,23623,"Iron, IVB",16000.0,1905.0,63.91667,-139.33333
Smara,23648,Eucrite-pmict,12870.0,2000.0,26.68333,-11.73333
Smithonia,23651,"Iron, IIAB",69900.0,1940.0,34.0,-83.16667
Smithville,23654,"Iron, IAB-MG",70500.0,1840.0,35.98333,-85.85
Snyder,23657,H3,16900.0,1983.0,32.71667,-100.91667
Social Circle,23659,"Iron, IVA",99300.0,1927.0,33.7,-83.7
Soledade,23662,"Iron, IAB-MG",68000.0,1986.0,-29.05,-51.43333
Sombrerete,23664,"Iron, IAB-sHL",10000.0,1958.0,23.63333,-103.66667
Somervell County,23665,"Pallasite, PMG",11800.0,1919.0,32.18333,-97.8
Souslovo,23673,L4,19300.0,1997.0,55.4295,55.78727
South Dahna,23677,"Iron, IAB complex",275000.0,1957.0,22.56667,48.3
Spearman,23687,"Iron, IIIAB",10400.0,1934.0,36.25,-101.21667
Springlake,23691,L6,17300.0,1980.0,34.34444,-102.22361
Springwater,23692,"Pallasite, PMG-an",67600.0,1931.0,52.0,-108.3
Ssyromolotovo,23694,"Iron, IIIAB",217000.0,1873.0,58.61667,98.93333
St. Genevieve County,23086,"Iron, IIIF",244500.0,1888.0,37.96667,-90.31667
Starvation Lake,23714,LL3.9,12000.0,1975.0,-30.46667,141.08333
Staunton,23716,"Iron, IIIE",43500.0,1869.0,38.21667,-79.05
Steinbach,23722,"Iron, IVA-an",98000.0,1724.0,50.5,12.5
Stump Spring 083,52752,LL6,13700.0,2010.0,35.98728,-115.85828
Sueilila,45010,LL6,13266.0,2005.0,24.63633,-14.71633
Sukhoj Liman,23739,H4/5,48000.0,1987.0,46.4,30.8
Susuman,23762,"Iron, IIIAB",18900.0,1957.0,62.72139,148.13028
Sychevka,23772,"Iron, IIIAB",65000.0,1988.0,51.125,127.495
Tafassasset,23779,CR-an,114000.0,2000.0,20.76333,10.44167
Taiban,23785,L5,25000.0,1934.0,34.45,-104.01667
Taicang,23787,Stone-uncl,20000.0,1928.0,31.5,121.08333
Talpa,23793,H6,13000.0,1963.0,31.86667,-99.58333
Tamarugal,23794,"Iron, IIIAB",320000.0,1903.0,-20.8,-69.66667
Tambo Quemado,23797,"Iron, IIIAB",141000.0,1950.0,-14.66667,-74.5
Tamentit,23798,"Iron, IIIAB",510000.0,1864.0,27.71667,-0.25
Tamir-Tsetserleg,23799,Stone-uncl,173000.0,1956.0,47.45,101.47917
Tanezrouft 028,23829,H3,15000.0,1991.0,25.25306,0.14028
Tanezrouft 065,23865,L4,30000.0,2002.0,25.4075,0.13639
Tanezrouft 072,31333,H6,62285.0,2002.0,24.43817,0.103
Tanokami Mountain,23872,"Iron, IIIE",174000.0,1885.0,34.91667,135.96667
Taoudenni,51580,Diogenite,24370.0,2007.0,22.79167,-3.96667
Tawallah Valley,23889,"Iron, IVB",75750.0,1939.0,-15.7,135.66667
Tazewell,23891,"Iron, IAB-sLH",27000.0,1853.0,36.43333,-83.75
Tell,23893,H6,16600.0,1930.0,34.38333,-100.4
Tendo,23896,"Iron, IIIAB",10100.0,1910.0,38.35,140.37333
Teocaltiche,23901,Iron,10000.0,1903.0,21.43333,-102.56667
Teplá,23902,"Iron, IIIAB",17000.0,1909.0,49.98333,12.86667
Texline,23906,H5,26200.0,1937.0,36.4,-103.01667
Thiel Mountains,23911,"Pallasite, PMG",31700.0,1962.0,-85.45,-90.0
Thule,23977,"Iron, IIIAB",48600.0,1955.0,76.53333,-67.55
Thunda,23978,"Iron, IIIAB",62100.0,1881.0,-25.7,143.05
Tianlin,23983,"Iron, IAB complex",300000.0,1956.0,24.3,106.1
Tiberrhamine,23985,L6,107000.0,1967.0,28.11667,0.53333
Tieraco Creek,23987,"Iron, IIIAB",41700.0,1922.0,-26.33333,118.33333
Tiffa 001,23991,H5,26900.0,1997.0,19.949,11.933
Tinnie,24006,"Iron, IVB",15300.0,1978.0,33.38333,-105.25
Tishomingo,24010,"Iron, ungrouped",260000.0,1965.0,34.25,-96.68333
Tlacotepec,24013,"Iron, IVB",71000.0,1903.0,18.65,-97.55
Toluca,24018,"Iron, IAB-sLL",3000000.0,1776.0,19.56667,-99.56667
Tombigbee River,24021,"Iron, IIG",43000.0,1859.0,32.23333,-88.2
Tonganoxie,24025,"Iron, IIIAB",11800.0,1886.0,39.08333,-95.11667
Tostado,24033,H6,22000.0,1945.0,-29.23333,-61.76667
Toubil River,24034,"Iron, IIIAB",22000.0,1891.0,55.88333,89.1
Toufassour,47702,Mesosiderite,73300.0,2007.0,29.65225,-7.7493
Travis County (a),24040,H5,175400.0,1889.0,30.3,-97.7
Trenton,24045,"Iron, IIIAB",505000.0,1858.0,43.36667,-88.13333
Tres Castillos,24047,"Iron, ungrouped",150000.0,1992.0,29.47,-105.8
Tryon,24056,L6,15900.0,1934.0,41.55,-100.96667
Tsarev,24058,L5,1225300.0,1968.0,48.7,45.7
Tucson,24061,"Iron, ungrouped",975000.0,1850.0,31.85,-110.96667
Tulia (a),24066,H3-4,86000.0,1917.0,34.61667,-101.95
Tulia (d),24069,H6,17700.0,1981.0,34.60667,-101.76667
Turtle River,24085,"Iron, IIIAB",22390.0,1953.0,47.6,-94.76667
Twannberg,24088,"Iron, IIG",20689.0,1984.0,47.12444,7.17889
Twentynine Palms,24089,L,19700.0,1944.0,34.075,-116.01667
Two Buttes (a),24091,H5,19700.0,1962.0,37.63333,-102.41667
Twodot,24093,H6,21400.0,1999.0,46.7,-110.13333
Uegit,24105,"Iron, IIIAB",252000.0,1921.0,3.81667,43.33333
Umbarger,24113,L6,13000.0,1954.0,34.95,-102.1175
Unter-Mässing,24124,"Iron, IIC",80000.0,1920.0,49.09028,11.33333
Uruachic,24130,"Iron, IIIAB",13000.0,1989.0,27.85,-108.23333
Uruaçu,24131,"Iron, IAB-MG",72500.0,1992.0,-14.53333,-48.76667
Ust-Nyukzha,24133,"Iron, IAB complex",44000.0,1992.0,56.38333,120.46667
Uwet,24138,"Iron, IIAB",54000.0,1903.0,5.28333,8.25
Uwharrie,24139,"Iron, IIIAB",72700.0,1930.0,35.51667,-79.96667
Vaalbult,24141,"Iron, IAB-MG",11800.0,1921.0,-29.75,22.5
Vaca Muerta,24142,Mesosiderite-A1,3828000.0,1861.0,-25.75,-70.5
Veliko-Nikolaevsky Priisk,24157,"Iron, IIIAB",24267.0,1902.0,53.83333,97.33333
Vera,24161,L/LL4,80000.0,1941.0,-29.91667,-60.28333
Verissimo,24163,"Iron, IIIAB",14000.0,1965.0,-19.73333,-48.31667
Verkhne Udinsk,24166,"Iron, IIIAB",18000.0,1854.0,54.76667,113.98333
Vermillion,24167,"Pallasite, ungrouped",34360.0,1991.0,39.73633,-96.36133
View Hill,24173,"Iron, IIIAB",33600.0,1952.0,-43.32,172.06333
Villedieu,24182,H4,14000.0,1890.0,47.91667,4.35
Vitoria da Conquista,48953,"Iron, IVA",10500.0,2007.0,-14.83861,-40.83611
Vulcan,24192,H6,19000.0,1962.0,50.51667,-113.13333
Vyatka,24193,H4,45000.0,1991.0,57.53333,49.0
Wabar,24194,"Iron, IIIAB",2550000.0,1863.0,21.49972,50.47222
Waconda,24195,L6,50000.0,1873.0,39.33333,-98.16667
Wagon Mound,24196,L6,87500.0,1932.0,35.84083,-104.58583
Waka,24200,H6,11875.0,1963.0,36.15,-101.05
Waldron Ridge,24203,"Iron, IAB complex",13600.0,1887.0,36.63333,-83.83333
Walker County,24204,"Iron, IIAB",74800.0,1832.0,34.0,-87.16667
Wallapai,24206,"Iron, IID",430000.0,1927.0,35.8,-113.7
Waltman,24211,L4,23410.0,1948.0,43.0,-107.16667
Warburton Range,24212,"Iron, IVB",56930.0,1963.0,-26.28333,126.66667
Waterville,24219,"Iron, IAB-ung",37125.0,1917.0,47.767778,-119.876389
Watson 001,24221,"Iron, IIE",93000.0,1972.0,-30.5,131.55
Wayside,24225,H6,23600.0,1973.0,34.80167,-101.68333
Weaver Mountains,24227,"Iron, IVB",38800.0,1898.0,34.25,-112.75
Weekeroo Station,24230,"Iron, IIE-an",94200.0,1924.0,-32.26667,139.86667
Weldona,24234,H4,27700.0,1934.0,40.35,-103.95
Wellington,24236,H5,13400.0,1955.0,34.95,-100.25
Wellman (a),24237,H5,55000.0,1940.0,33.03333,-102.33333
Wellman (c),24239,H4,45000.0,1964.0,33.03333,-102.33333
Wichita County,24257,"Iron, IAB-MG",145000.0,1836.0,34.06667,-98.91667
Wildara,24265,H5,500000.0,1968.0,-28.23333,120.85
Wilder,24267,H5,26600.0,1982.0,43.72444,-116.91167
Willamette,24269,"Iron, IIIAB",15500000.0,1902.0,45.36667,-122.58333
Willard (b),24271,H3.6,12700.0,1934.0,34.5,-105.83333
Willow Creek,24276,"Iron, IIIE",51000.0,1914.0,43.46667,-106.76667
Willow Grove,24277,"Iron, ungrouped",11700.0,1995.0,-38.10306,146.18111
Winburg,24283,"Iron, IC-an",50000.0,1881.0,-28.5,27.0
Windimurra,55552,H4/5,30000.0,2004.0,-28.09697,118.45561
Winona,24285,Winonaite,24000.0,1928.0,35.2,-111.4
Wolf Creek,24326,"Iron, IIIAB",760000.0,1947.0,-19.3,127.76667
Wolsey,24328,"Iron, IAB-MG",74830.0,1981.0,44.4,-98.53333
Wonyulgunna,24329,"Iron, IIIAB",37800.0,1937.0,-24.91667,120.06667
Woodbine,24330,"Iron, IAB-ung",48200.0,1953.0,42.34667,-90.1675
Woodward County,24333,H4,45500.0,1923.0,36.5,-99.5
Wooramel,24335,L5,71000.0,1969.0,-25.65,114.21667
Wooster,24336,"Iron, IAB-sLL",22700.0,1858.0,40.76667,-81.95
Wu-chu-mu-ch'in,24341,"Iron, IAB-ung",68860.0,1920.0,45.5,118.0
Wynella,24343,H4,40000.0,1945.0,-28.95,148.13333
Xifu,54608,"Iron, IAB complex",3000000.0,2004.0,36.3,120.48333
Xinyi,24347,H5,69000.0,1975.0,34.36667,118.33333
Yamato 000593,24355,Martian (nakhlite),13713.0,2000.0,-71.5,35.66667
Yamato 75102,25143,L4/5,11000.0,1975.0,-71.5,35.66667
Yamato 791717,27066,CO3.3,25322.0,1979.0,-71.5,35.66667
Yamato 793235,28584,L6,18126.0,1979.0,-71.5,35.66667
Yamato 81124,29185,H5,10790.0,1981.0,-71.5,35.66667
Yanhuitlan,30349,"Iron, IVA",421000.0,1825.0,17.53333,-97.35
Ybbsitz,30360,H4,15000.0,1977.0,47.96,14.89
Yelland Dry Lake,52641,H4,76000.0,2007.0,39.35067,-114.40783
Yenberrie,30361,"Iron, IAB-MG",132000.0,1918.0,-14.25,132.01667
Yilmia,30362,EL6,40000.0,1969.0,-31.19167,121.53333
Yingde,30363,"Iron, IVA",3000000.0,1964.0,24.2,113.4
Yongning,30365,"Iron, IAB-ung",60000.0,1971.0,22.75,108.33333
Youanmi,30373,"Iron, IIIAB",118400.0,1917.0,-29.5,118.75
Youndegin,30374,"Iron, IAB-MG",3800000.0,1884.0,-32.1,117.71667
Youxi,55793,Mesosiderite-C,218000.0,2006.0,26.06,118.01
Ysleta,30375,"Iron, ungrouped",140700.0,1914.0,31.65,-106.18333
Zacatecas (1792),30381,"Iron, ungrouped",1000000.0,1792.0,22.81667,-102.56667
Zagora,30387,"Iron, IAB-ung",50000.0,1987.0,30.36667,-5.85
Zapaliname,30392,"Iron, IAB-MG",85000.0,1998.0,25.00944,-100.75
Zerhamra,30403,"Iron, IIIAB-an",630000.0,1967.0,29.85861,-2.645
Zerkaly,31354,H5,16000.0,1956.0,52.13333,81.96667
Zhaoping,54609,"Iron, IAB complex",2000000.0,1983.0,24.23333,111.18333
Zhigansk,30405,"Iron, IIIAB",900000.0,1966.0,68.0,128.3
Zhongxiang,30406,Iron,100000.0,1981.0,31.2,112.5
